lat,lng,name,metric_1,metric_2,metric_3,metric_4,metric 5,geography_id
53.752917377299994,-2.37189798595,Accrington,0.533823591743,3.1727184166400004,139.940596902,cat 3,category 2,Accrington
51.372806921300004,-0.48420599823700006,Addlestone,0.35677407978,-7.384442401810001,-124.33915575600001,cat 1,category 0,Addlestone
53.3204501341,-2.13454105193,Adlington (Cheshire),1.67837109588,-13.2387133725,-30.5154857243,cat 1,category 11,Adlington (Cheshire)
53.474719881999995,-2.95592187685,Aintree,-1.5131702478600002,-4.8106079913,-111.20971095799999,cat 1,category 2,Aintree
55.7775189686,,Airbles,0.8349645601919999,6.44036836941,81.4621123244,cat 4,category 25,Airbles
55.863676688299996,-4.21142789433,Alexandra Parade,-0.448127886445,7.621839222030001,-11.805257184,cat 2,category 8,Alexandra Parade
,,Alfreton,0.40542247778000007,16.925034305,180.998706331,,category 28,Alfreton
51.8538675524,0.995539653395,Alresford,-1.6261351420399999,-10.5704482588,-17.8853173995,,category 18,Alresford
52.3460241554,-1.9683211176400002,Alvechurch,0.9405432219959999,-0.114133259625,24.212667347100002,,category 12,Alvechurch
50.8966281575,-0.543017805892,Amberley,-1.0338370458,10.7628431527,25.6404922029,cat 3,category 28,Amberley
52.9874106394,-0.535186098985,Ancaster,1.74701177852,3.50934206203,36.6905906831,cat 1,category 4,Ancaster
50.8166840483,-0.490284783269,Angmering,-0.37799295779299996,6.40807116364,-15.1884710999,cat 1,category 24,Angmering
53.578731418500006,-2.7178636201099997,Appley Bridge,-1.5570318054799999,5.724329088130001,17.6019521794,cat 3,category 11,Appley Bridge
55.886651432200004,-3.69283143554,Armadale,0.0236627554007,15.416794601400001,67.2534602304,,category 14,Armadale
56.203969325299994,-4.7227699455000005,Arrochar & Tarbet,0.8359564288179999,6.83685519833,-74.3408549522,,category 1,Arrochar & Tarbet
50.847139186099994,-0.548040113794,Arundel,-0.8718718818369999,-4.456472895859999,25.277603029699996,cat 3,category 2,Arundel
53.490777573,-2.09348222707,Ashton-Under-Lyne,-0.552922526966,7.250455467030001,-155.23907524,cat 2,category 4,Ashton-Under-Lyne
51.128496307,0.151343841994,Ashurst,-2.21484554752,-4.8764543502599995,203.98006752700002,cat 2,category 20,Ashurst
52.0302360047,-0.11010301442399999,Ashwell & Morden,0.78600568223,7.41061366474,-50.4505214801,cat 3,category 18,Ashwell & Morden
52.505039680299994,-1.8734044488400001,Aston,-1.71747793908,8.11023328656,-28.554312325700003,,category 11,Aston
50.7790373667,-3.0055691312199997,Axminster,-0.981874385447,-11.1450581804,12.48367249,cat 4,category 29,Axminster
55.4579330704,-4.62507079328,Ayr,0.204174091316,-9.18272199774,8.02524308033,cat 1,category 3,Ayr
51.0551917442,,Balcombe,1.87241897243,11.758495996199999,-23.3593630079,cat 1,category 23,Balcombe
56.002698934499996,-4.58603624919,Balloch,-0.596221549649,18.1424497611,66.1906490014,cat 2,category 9,Balloch
53.726803359499996,-2.65562081348,Bamber Bridge,0.052473046835,-4.80833144721,-44.5144427735,cat 3,category 11,Bamber Bridge
51.3289648618,-0.212857999895,Banstead,1.56879396364,-18.746109698599998,-85.7973279671,cat 3,category 1,Banstead
54.08324215060001,-2.83373201071,Bare Lane,-0.0947792019985,0.951910150372,-118.05960600799999,cat 2,category 27,Bare Lane
55.8514029663,-4.0750913979900005,Bargeddie,0.548453838493,0.21734839582600002,85.0090542058,cat 1,category 23,Bargeddie
51.0734706337,-4.062752060769999,Barnstaple,-0.0057680032608,12.0293696756,-194.275615168,cat 4,category 12,Barnstaple
55.803032870200006,-4.40186668821,Barrhead,1.29183204841,10.5585820953,-35.39643544,cat 2,category 23,Barrhead
53.69736424640001,-0.392199962223,Barrow Haven,0.104091438072,8.51265832229,86.57048551700001,cat 4,category 14,Barrow Haven
54.1187024639,-3.22695304694,Barrow-In-Furness,2.78702384108,16.397634463800003,-111.544576554,cat 1,category 14,Barrow-In-Furness
53.6894691587,-0.440962970184,Barton-On-Humber,0.789340386248,-14.7745876619,13.3621329613,cat 3,category 5,Barton-On-Humber
51.5681411579,0.459345056709,Basildon,1.53795867899,-12.6902398815,168.758167981,cat 3,category 27,Basildon
51.269166546099996,-1.08637330386,Basingstoke,-0.357388166232,13.895530483,36.565322204299996,cat 4,category 2,Basingstoke
50.9137832305,0.49652769079,Battle,-0.164308046445,1.8397130863799998,56.5115371002,cat 3,category 24,Battle
51.6111652076,-0.643955943244,Beaconsfield,-2.11954009412,5.54671723287,84.6885570118,,category 3,Beaconsfield
52.4587046354,1.5693610543399998,Beccles,0.833838073319,31.5281075496,13.3935897097,cat 3,category 20,Beccles
52.13161271,-0.472760461513,Bedford St.Johns,-2.24569334208,-4.59527395892,123.78433200100001,,category 9,Bedford St.Johns
51.1814196118,-0.867135048053,Bentley,0.871072587226,2.74678577663,60.9049299217,cat 4,category 11,Bentley
52.395651638000004,-1.6418869079299998,Berkswell,-2.83759994946,-20.007842536400002,-122.214377591,cat 4,category 23,Berkswell
52.589818958100004,,Berney Arms,-0.543837238378,-8.0229448778,56.925320941,cat 3,category 21,Berney Arms
55.77545888189999,-2.0111330716999998,Berwick-Upon-Tweed,-0.474577052861,4.57371244309,-123.060666706,cat 4,category 21,Berwick-Upon-Tweed
51.892569627600004,-1.1484094219299998,Bicester Town,-0.40609023949699996,12.4331810541,-48.8068584391,cat 1,category 1,Bicester Town
52.6240762438,-2.18579381974,Bilbrook,-1.3890662780399998,3.1222450416000003,254.942767063,cat 3,category 12,Bilbrook
53.4085965534,-3.0573505808999997,Birkenhead North,-0.937070707554,3.23214241205,-93.9376741551,cat 4,category 8,Birkenhead North
53.3986842299,-3.04069611383,Birkenhead Park,0.802511848227,8.794677670930001,-18.382869898800003,cat 3,category 5,Birkenhead Park
52.4533773452,-1.73015230164,Birmingham International,-0.219166877342,8.78663746146,10.6859084131,cat 4,category 29,Birmingham International
52.477408089099995,-1.88570389021,Birmingham Moor Street,0.39189166467000003,-5.34281865237,-41.2396778744,,category 20,Birmingham Moor Street
51.863526862,0.168663824744,Bishops Stortford,-0.0653676758415,-7.2681343616100005,-117.72869734,,category 6,Bishops Stortford
53.7443932552,-2.48137229101,Blackburn,-1.5034862056,0.486046754372,46.150074850299994,cat 1,category 25,Blackburn
55.8814468333,-3.76521886242,Blackridge,-1.0070315139100001,6.24704404943,29.736605927600003,cat 3,category 19,Blackridge
53.5911141315,-2.56989615997,Blackrod,1.1970159761799999,-28.074037267399998,97.8687386783,cat 1,category 15,Blackrod
51.332803973199994,-0.7777132286890001,Blackwater,1.38810745622,-10.8560161676,137.177110799,,category 24,Blackwater
52.9963283952,-3.9429067160900004,Blaenau Ffestiniog,-1.0287757629799998,-17.8722598785,57.1282865583,cat 2,category 11,Blaenau Ffestiniog
52.627367051099995,-2.01975345434,Bloxwich North,0.0334728968294,9.30311467274,-141.71460930700002,cat 3,category 8,Bloxwich North
52.9672425507,-2.06547080991,Blythe Bridge,0.822545522404,12.1984490873,160.746487039,cat 1,category 14,Blythe Bridge
50.445330307,-4.66332104726,Bodmin Parkway,-0.32467372946,13.834528367699999,64.4333919652,cat 4,category 23,Bodmin Parkway
53.204099176199996,-4.4146224387699995,Bodorgan,-0.31800849424100003,5.63501955752,-9.76282694379,cat 3,category 16,Bodorgan
53.5761496429,-2.4298469339200004,Bolton,1.33840553841,-4.2843364888,-46.751835613400004,,category 6,Bolton
51.575109768800004,,Bourne End,0.6602874885760001,-8.29992344493,-103.396951316,cat 1,category 20,Bourne End
55.9306344109,-4.4913313190599995,Bowling,-2.1001317654400005,22.8689122712,136.757379298,cat 3,category 5,Bowling
51.4132728467,-0.751123457653,Bracknell,0.0441078192791,-3.4280872409099996,5.579716469480001,cat 4,category 28,Bracknell
51.8755426667,0.557523834343,Braintree,0.698887099945,-4.662441524619999,-68.4536264394,,category 7,Braintree
51.3302901646,-1.0608305064799999,Bramley (Hampshire),-0.447405958699,-1.13215191017,-163.476693987,cat 3,category 13,Bramley (Hampshire)
53.422453227,-2.10762716793,Bredbury,0.43782642671800004,-6.83454356264,82.6141269492,cat 4,category 10,Bredbury
55.827717094099995,-3.6679828283699996,Breich,0.369529122709,-2.9274948015499995,-87.0513015934,cat 1,category 21,Breich
54.0837858804,-0.197970867083,Bridlington,1.0639791000399998,0.530604385906,-16.3340332367,cat 2,category 17,Bridlington
53.4322698628,-2.13316372636,Brinnington,0.0501119489731,0.463248825562,-15.5699225947,cat 3,category 29,Brinnington
51.449505772100004,-2.5805283836200004,Bristol Temple Meads,-0.546389155306,-9.98855959768,222.49601051599998,,category 20,Bristol Temple Meads
51.6343677441,-3.8205127170199997,Briton Ferry,0.12101044031099999,4.28910726395,63.4101215135,cat 4,category 19,Briton Ferry
53.4410170062,-2.0171982372599997,Broadbottom,0.441151813459,-14.107823238800002,91.9454931036,cat 3,category 10,Broadbottom
52.3188214812,-2.05196250265,Bromsgrove,-0.590229274926,15.8516386431,-171.818291561,,category 26,Bromsgrove
51.3038526025,-0.635529835905,Brookwood,0.65760498592,6.88259137203,92.2130633217,cat 1,category 14,Brookwood
58.0125667889,-3.8532279038499997,Brora,-0.627184273668,-15.6688886875,31.7549400623,cat 2,category 14,Brora
53.726722503000005,-0.577746949587,Brough,0.335995814584,0.513736288479,-58.6578600805,cat 3,category 4,Brough
53.3852124086,-2.97765558286,Brunswick,1.2968564087799999,-1.29054749692,-48.1663841012,cat 4,category 20,Brunswick
51.1120497532,-2.4450060793599997,Bruton,-0.0490056920735,-5.8321019839499995,-99.4121458346,cat 4,category 7,Bruton
53.812255419799996,-1.5783727479299998,Burley Park,0.638456102041,-4.347118162219999,-108.540288288,cat 1,category 18,Burley Park
53.903594259799995,-1.74578869208,Burley-In-Wharfedale,1.4372006366299999,-4.14946481077,-151.675275803,cat 4,category 19,Burley-In-Wharfedale
53.7909640875,-2.25914879834,Burnley Barracks,1.29519440222,-2.82897500348,97.8289405908,cat 1,category 14,Burnley Barracks
53.5981912758,-2.8406941524500002,Burscough Junction,-2.09508178599,-2.41476619804,93.73395111110001,,category 27,Burscough Junction
52.2534108668,0.712918943442,Bury St.Edmunds,-0.289650635394,,-26.0051662913,cat 4,category 15,Bury St.Edmunds
50.9894675941,0.131157531765,Buxted,-1.8086176873700002,1.5931707698299997,35.368852568899996,cat 2,category 1,Buxted
53.1084027276,-3.0327016306,Caergwrle,2.1412208004599997,6.81893301295,-41.6309424876,cat 2,category 24,Caergwrle
55.8190083058,-4.17369343703,Cambuslang,-1.21186583125,15.5424517416,139.254731357,cat 1,category 17,Cambuslang
52.5785308141,1.51309963056,Cantley,0.500167959702,-4.19604453622,-70.610173248,cat 2,category 2,Cantley
55.8526369546,-4.34173513966,Cardonald,-0.9737528623530001,1.28466281754,146.393943041,cat 2,category 22,Cardonald
55.8072825443,-3.9568891492900002,Carfin,-0.528385723802,-9.35487360992,31.295564490500002,cat 2,category 16,Carfin
55.9416820396,-4.73115291304,Cartsdyke,-1.27007790078,15.709440884700001,183.00359431200002,cat 1,category 16,Cartsdyke
54.466910681899996,-0.945882831725,Castleton Moor,1.84411993021,-4.18303610884,45.9403357187,,category 12,Castleton Moor
53.312409093599996,-1.9189121420700002,Chapel-En-Le-Frith,0.323304009233,2.07048031438,35.3986896852,cat 2,category 10,Chapel-En-Le-Frith
51.8718389557,-1.48911944846,Charlbury,0.7359340277390001,2.7856648279000003,-91.14215830190001,cat 1,category 4,Charlbury
55.7683363263,-4.012885062790001,Chatelherault,1.0184670117,5.33682585753,159.388385715,cat 3,category 9,Chatelherault
55.5363730808,-1.7068531508700002,Chathill,1.26833803576,-3.2435725812199996,-172.189871227,cat 1,category 29,Chathill
51.700458813800005,-0.025758165184999997,Cheshunt,-0.519716228028,-18.0087460876,38.0428954001,,category 23,Cheshunt
50.8664036207,-2.5734660693299998,Chetnole,-0.0324539918016,-18.0319421484,1.73385075948,cat 2,category 1,Chetnole
51.308741984799994,-0.169883152885,Chipstead,0.108706111941,-9.43141492073,-9.82717144077,,category 16,Chipstead
52.9315979074,-3.06612724205,Chirk,0.17174970512,3.8146270484800007,59.516953833100004,,category 0,Chirk
53.6515899017,-2.62699303988,Chorley,-1.39455369072,7.03536352726,84.5129129682,cat 3,category 11,Chorley
51.050416644799995,-0.363708439478,Christ's Hospital,0.122223520756,3.53787321226,43.9523865479,cat 4,category 16,Christ's Hospital
52.537439184700006,-2.80347351263,Church Stretton,0.08770112111169999,-2.16075183966,124.871397234,cat 4,category 26,Church Stretton
52.150073989,-3.45689160068,Cilmeri,0.449177277282,4.78080883071,5.1538044208,cat 4,category 25,Cilmeri
51.79400108390001,,Clacton,-0.602735410887,4.71017293188,-42.6214663097,cat 3,category 21,Clacton
51.3616671757,-0.34861925405999994,Claygate,1.31740087551,11.4160413939,-11.8735517829,cat 3,category 11,Claygate
55.900430342700005,,Clydebank,1.2190973288200002,3.72000053316,-44.1780883118,cat 4,category 17,Clydebank
55.8665801329,-4.02723504118,Coatbridge Sunnyside,-0.473751758838,-9.27255708025,19.204729258900002,,category 18,Coatbridge Sunnyside
55.8648668986,-4.00565079807,Coatdyke,0.6475895320489999,7.469009573039999,76.8474755671,cat 3,category 26,Coatdyke
51.445687640200006,-3.18793074443,Cogan,-0.919149017335,12.6379841544,-161.299429701,cat 1,category 11,Cogan
50.8388883816,0.457158629786,Collington,-0.66921272556,-22.657229896599997,76.7766315139,cat 4,category 28,Collington
51.832001403999996,-1.39292017924,Combe,1.9248624322099999,-6.55885484717,94.95806584639999,cat 1,category 22,Combe
50.813801346800005,-3.75083705799,Copplestone,0.11424475826700001,5.9169693397000005,96.5388835755,,category 12,Copplestone
56.113201538,-3.3442697632,Cowdenbeath,-0.409003097156,0.177597121002,-53.6987439944,cat 2,category 1,Cowdenbeath
52.469830801499995,-2.09166616441,Cradley Heath,-0.6883587217039999,-8.04808596114,-33.5336123155,,category 13,Cradley Heath
55.994557865,-4.7117883769499995,Craigendoran,0.43979781321999994,-7.939884610960001,-87.5434444584,,category 18,Craigendoran
53.80512808,-1.44967947403,Cross Gates,1.69802801351,-13.8103775342,76.5690658642,cat 2,category 14,Cross Gates
51.366403813199994,-0.818549044883,Crowthorne,-2.13280825893,-15.395854866199999,171.81433812400002,cat 4,category 0,Crowthorne
51.7086348309,-0.110076447194,Cuffley,-1.2129161627,2.08425151292,-63.9048758608,cat 4,category 15,Cuffley
51.653061913900004,-1.2363091765899998,Culham,0.8722821636589999,9.68516972321,-106.12390581,,category 14,Culham
51.7001148457,-3.4147518873,Cwmbach,-1.80138451682,-0.323392311213,-28.978830119899996,,category 4,Cwmbach
51.655685266099994,-3.016183196,Cwmbran,-1.7298680564400002,-0.725370111184,-64.1427019491,cat 3,category 4,Cwmbran
53.5394643014,-2.51284330819,Daisy Hill,-0.492239749247,-0.16364207697,89.0060637485,,category 25,Daisy Hill
55.9115371938,-4.4282566256,Dalmuir,1.9126470247599998,7.27558634525,146.52895344700002,cat 1,category 17,Dalmuir
55.7053477412,-4.71184698123,Dalry,0.9406448700810001,-9.79474444401,-25.4332684102,cat 2,category 0,Dalry
54.846389062600004,-2.99010304218,Dalston,0.565196870593,-16.4409374826,67.9413641099,cat 4,category 8,Dalston
54.4658710198,-0.909728944291,Danby,-0.782534134589,-7.12867350717,43.0859991054,cat 1,category 13,Danby
51.226345010600006,1.39695578735,Deal,-0.7235015722600001,-11.2203285262,92.3450017447,cat 3,category 22,Deal
51.578695735100005,-0.499158876178,Denham,1.58040609017,18.4321056346,-6.34675391471,cat 4,category 3,Denham
51.5805233945,,Denham Golf Club,0.45678626761200003,-15.838529733800002,-36.0369909332,cat 3,category 5,Denham Golf Club
54.2815097788,-2.3631298861000003,Dent,-0.024127418619099998,-20.617870808,27.0834358416,cat 1,category 22,Dent
51.61225020689999,-1.24472046023,Didcot Parkway,0.273525369663,-18.185207177,-72.1491193542,cat 4,category 20,Didcot Parkway
54.5149910754,-1.4657486095899999,Dinsdale,0.22156460462900002,3.46381222,53.06060574479999,cat 3,category 16,Dinsdale
52.3720830564,1.1219700302700002,Diss,0.0191912740614,0.599925204505,65.4318913121,cat 3,category 17,Diss
53.543653152299996,-1.5327544878600001,Dodworth,0.418216830933,5.00377396185,97.6444557931,,category 16,Dodworth
53.5187705694,-1.13893329096,Doncaster,-0.0685594140398,20.1448674007,140.380432335,cat 4,category 14,Doncaster
50.7094135337,-2.4331083518,Dorchester South,1.06083306551,-14.2342814124,151.214847219,cat 2,category 12,Dorchester South
50.712359050299995,-2.4437581048,Dorchester West,0.6770836130410001,-7.77225030285,11.837675940899999,cat 1,category 8,Dorchester West
51.2407698038,-0.323869717612,Dorking,2.4053814025299998,5.09972037056,-14.3647250878,cat 1,category 24,Dorking
51.156170448999994,-0.004463460502640001,Dormans,-0.966999085911,0.884140273944,54.9858281546,cat 1,category 15,Dormans
51.1267416095,1.30372418104,Dover Priory,-0.7242206618029999,,-18.482859103699997,cat 2,category 22,Dover Priory
51.938466438599995,1.27998008338,Dovercourt,0.147607294378,9.32553882676,-133.10488096,cat 4,category 14,Dovercourt
52.6028298332,0.36435689007,Downham Market,-1.59721317759,11.4646623625,-157.092844824,cat 2,category 24,Downham Market
56.004758212,-2.78660169332,Drem,0.863273681444,-3.9929572964999998,148.46488771,cat 2,category 13,Drem
55.9044004284,-4.3631737824400005,Drumchapel,-0.24607653979400002,7.14151156845,-1.2319412740200002,cat 2,category 15,Drumchapel
52.9872052411,-1.48430264058,Duffield,1.02684696491,7.66926746244,158.191312238,,category 26,Duffield
57.3198131937,-5.6903857264,Duirinish,0.395482972064,-16.3641502358,83.9503721654,,category 8,Duirinish
55.85915889100001,-4.21276910175,Duke Street,-0.359675870668,-1.15632554363,63.8579087438,cat 2,category 29,Duke Street
55.9435184865,-4.5512574936000005,Dumbarton East,-0.6376360640259999,5.06095450983,165.7305708,cat 4,category 18,Dumbarton East
55.8440354725,-4.30224109018,Dumbreck,-1.91271672343,9.3617941411,-42.5592954706,cat 1,category 6,Dumbreck
55.07454574770001,-3.6066541131800003,Dumfries,0.674426797975,-13.114011652,29.3396964349,cat 2,category 9,Dumfries
51.3460117154,1.4267756773700002,Dumpton Park,0.8675340250489999,-9.61899051702,-95.0394309734,cat 4,category 0,Dumpton Park
56.179987600299995,-3.96357304996,Dunblane,-0.35226736398599995,-9.84561589602,-48.0984538754,cat 4,category 21,Dunblane
51.0337852951,-1.5460165607299998,Dunbridge,1.6444031184,0.983188249926,-24.5759993466,cat 1,category 6,Dunbridge
56.5563407679,-3.5780437271800007,Dunkeld & Birnam,0.275871630022,1.7926206369,-39.365555852600004,cat 4,category 15,Dunkeld & Birnam
57.204930223199995,-2.19198752682,Dyce,0.0711372737405,-4.85808980833,66.6780504946,,category 3,Dyce
53.4088547551,-2.22334782083,East Didsbury,-0.223021429221,-0.029963841368,170.59753147200001,,category 5,East Didsbury
50.769792097,0.281139516202,Eastbourne,0.408334789503,6.826728523300001,-47.1574955588,cat 2,category 9,Eastbourne
53.4310975896,-2.78027299608,Eccleston Park,-2.4604015602700002,7.242240432969999,-105.096572126,,category 10,Eccleston Park
51.2088530565,0.0588037479031,Edenbridge,0.601181013407,-5.09021742239,-42.5112771454,cat 1,category 26,Edenbridge
51.6521700095,-0.28018779283100004,Elstree & Borehamwood,-0.358744469111,-9.287397774450001,173.239439738,cat 2,category 15,Elstree & Borehamwood
52.951957031999996,-0.855740352919,Elton & Orston,-0.11097110518799999,-10.2387251844,-113.93207439700001,cat 3,category 26,Elton & Orston
51.321359652,-0.242143883341,Epsom Downs,1.85861004835,-5.0451623487,-54.7003254196,,category 3,Epsom Downs
50.7288882551,-3.54518634507,Exeter St. David's,-0.368719594837,4.3368626492,-112.058893416,,category 27,Exeter St. David's
51.49453869479999,-3.23342434015,Fairwater,-1.74861893333,6.95941976515,1.49789435639,cat 1,category 22,Fairwater
56.39477266350001,-5.1145763965499995,Falls Of Cruachan,-0.996047803722,11.2375472562,-69.7912418496,cat 1,category 3,Falls Of Cruachan
50.855455955299995,-1.19406950333,Fareham,-0.563131289527,-10.7765383169,-71.1976623585,cat 1,category 22,Fareham
51.1974727368,-0.605040109968,Farncombe,-0.315555508868,-11.2949988394,91.9128065651,,category 15,Farncombe
51.3103763682,0.8926829824889999,Faversham,-0.9801131846850001,-3.33478192146,-43.902684347299996,,category 19,Faversham
52.0002472215,-0.717667393165,Fenny Stratford,-0.197379795907,-8.78047518487,89.4380524998,cat 4,category 2,Fenny Stratford
51.686571987200004,-3.39682533735,Fernhill,0.290201965563,-13.5796001584,-29.829104749499997,cat 2,category 14,Fernhill
53.7171875412,-0.506995754322,Ferriby,-1.29023688568,-5.03299922212,212.50377577400002,cat 2,category 17,Ferriby
50.839272264499996,-0.8148655408200001,Fishbourne,0.878166074623,-0.630749931576,-26.832861909699997,cat 4,category 5,Fishbourne
54.6907195084,-3.5207010838999997,Flimby,0.285870567424,-4.33905501306,207.968842076,,category 5,Flimby
51.0824874734,1.1672558754,Folkestone Central,-1.48673265033,11.6643782433,-94.0347511009,cat 1,category 29,Folkestone Central
56.8265019924,-5.09707083501,Fort William,-1.44358827785,9.50229297462,158.107847999,cat 1,category 11,Fort William
52.5799595784,-1.8290640275499999,Four Oaks,-1.38947069593,-12.6487792115,75.7709239212,cat 1,category 1,Four Oaks
53.56617754770001,-3.07281404774,Freshfield,0.388708287366,-1.21854846297,42.323449037399996,cat 3,category 25,Freshfield
51.311845363900005,-0.747278695693,Frimley,1.30889581612,6.3069086648,-109.70989069299999,cat 2,category 24,Frimley
51.837739748699995,1.24070661626,Frinton,-1.15669420479,4.65754469301,180.552873519,,category 16,Frinton
51.5330313153,-0.728818459429,Furze Platt,0.0163769793508,2.22997956835,6.33562110421,cat 3,category 19,Furze Platt
56.0768380384,-4.8262984664,Garelochhead,0.842600135411,4.8260741843699995,140.675561926,cat 1,category 18,Garelochhead
55.8556872449,-4.1294051520999995,Garrowhill,-1.80096182842,-4.6808974906300005,22.2478100919,cat 3,category 29,Garrowhill
54.320520359700005,-2.32980538786,Garsdale,0.0224209585946,-5.98388884508,-31.8245651747,cat 1,category 26,Garsdale
51.685152027,-0.383312282503,Garston (Hertfordshire),1.1515857632200002,0.572594352171,-20.4289256462,cat 4,category 10,Garston (Hertfordshire)
53.4878792334,-2.6739329707,Garswood,-0.639761762768,10.857499638299998,-136.80776078899999,,category 23,Garswood
53.5596295508,-2.69371757075,Gathurst,0.664268623248,-4.63380398371,-136.348365019,,category 26,Gathurst
53.3932891959,-2.2313864367900003,Gatley,0.313550201909,20.735780038399998,61.0783640942,cat 3,category 10,Gatley
55.804507728900006,-4.29408191774,Giffnock,-0.28459622652399996,4.5859498070399995,-178.328959042,cat 2,category 5,Giffnock
54.440153405699995,-0.79476732493,Glaisdale,0.33319515937800004,-0.634364292251,-66.0375908064,,category 7,Glaisdale
53.717963178299996,-1.3479272078600002,Glasshoughton,-0.231903266114,-1.5886723546000001,56.0438957767,cat 4,category 23,Glasshoughton
53.4288525666,-2.45958747808,Glazebrook,-0.734046507158,8.192446545960001,-96.6416713598,cat 2,category 28,Glazebrook
56.2740802734,-3.73145619915,Gleneagles,0.0734708256417,-11.778138974300001,49.0747388904,cat 3,category 7,Gleneagles
55.7395832649,-4.67550526913,Glengarnock,0.0437678508587,-10.2758164016,-164.249300933,cat 3,category 13,Glengarnock
51.8657374252,-2.23812549972,Gloucester,-0.44433555829599997,0.285086417333,-37.095799586999995,cat 2,category 2,Gloucester
51.186806906,-0.619385114259,Godalming,1.9871537531,-11.919310848599999,36.0233092122,cat 3,category 24,Godalming
53.4516844305,-2.0536730992099996,Godley,-0.18961675151299998,5.86299306224,81.54486080550001,,category 14,Godley
56.4980571334,-2.7203606784599996,Golf Street,0.6041133743770001,-2.2226779570299997,-110.257655045,cat 4,category 20,Golf Street
51.219130145200005,-0.443436325974,Gomshall,-0.539504504975,-3.3791097045,20.6098095596,cat 2,category 12,Gomshall
55.9605154262,-4.82077305064,Gourock,-0.5601297994100001,-3.4465078840599994,34.357002786100004,cat 2,category 9,Gourock
51.6478977013,-4.03430740334,Gowerton,0.915665407565,13.880433384100002,-59.0220156488,cat 2,category 12,Gowerton
51.69921156109999,-0.705211915623,Great Missenden,-0.273441814326,5.12467165736,2.4135686076700003,cat 3,category 0,Great Missenden
52.613101541400006,1.71948856211,Great Yarmouth,0.7466681101579999,2.46111091718,-121.49245704100001,,category 14,Great Yarmouth
55.9448519947,-4.752278995669999,Greenock Central,0.228150554683,-10.816808946400002,48.6565715988,,category 14,Greenock Central
54.4361703375,-0.726274329357,Grosmont,0.057207324655900005,3.4050941292799997,-138.124060061,cat 1,category 21,Grosmont
53.4609679863,-1.9661486545,Hadfield,-2.21703593756,9.034416138680001,81.7118590936,cat 3,category 6,Hadfield
55.7616832008,-4.22063238083,Hairmyres,-0.316612422799,14.203124960699999,147.83327697299998,,category 17,Hairmyres
53.364926879799995,-2.82888029768,Halewood,-0.217408936487,-13.915829166099998,79.96914502770001,cat 4,category 0,Halewood
51.352900447399996,0.445715607337,Halling,-0.482219505457,-9.147045864139999,66.5743766016,cat 2,category 13,Halling
50.796165188,0.28008208389,Hampden Park,-0.629362682767,5.68103506515,-141.492124878,cat 3,category 23,Hampden Park
51.401684230600004,-0.34229035703599997,Hampton Court,1.19366580332,14.879512157899999,251.94400177400001,cat 2,category 27,Hampton Court
51.9609426875,-0.496178535564,Harlington,-2.0397020378099997,-9.929553381369999,-102.760843541,cat 2,category 7,Harlington
51.7901972196,0.131574656461,Harlow Mill,-1.1448456658700001,5.042215060159999,8.478580339219999,cat 4,category 14,Harlow Mill
53.5884662838,-1.02610228372,Hatfield & Stainforth,0.200003678919,-17.1839208136,-10.4440325729,cat 1,category 6,Hatfield & Stainforth
54.9748580865,-2.24836687061,Haydon Bridge,0.119056189237,24.3243437834,38.3347904831,cat 3,category 22,Haydon Bridge
51.1660317356,0.6272853078689999,Headcorn,0.07766183514510001,13.9313102145,-128.201616898,,category 23,Headcorn
53.5815943937,-0.159128095331,Healing,0.8259992141150001,-1.71528638011,-65.8892641786,cat 4,category 25,Healing
52.977962141400006,-0.295110551144,Heckington,-0.600024771919,2.88898473038,249.884977765,cat 1,category 13,Heckington
53.7172947533,-0.441298022882,Hessle,0.705032195353,-8.488102355510001,-49.7016589552,,category 19,Hessle
51.426009460299994,0.467528533399,Higham,0.793505018943,5.0777442312800005,-169.826591748,,category 16,Higham
53.6218219467,-3.02622142274,Hillside,-0.883258125391,7.10421804979,-169.30268941100002,,category 15,Hillside
53.542963227600005,-2.57362519069,Hindley,-0.0798360234168,4.193903572830001,94.88162611790001,,category 18,Hindley
50.7523544318,-1.71204447426,Hinton Admiral,-0.731440121554,6.94039997023,163.54254375899998,cat 4,category 12,Hinton Admiral
,-4.6322296301699994,Holyhead,0.8166048795890001,-8.68221975908,-86.4084698455,cat 3,category 7,Holyhead
55.811056881400006,-3.9709630480800002,Holytown,0.578963317223,19.2868404984,44.046271324399996,cat 4,category 10,Holytown
52.101054409899994,-1.8303139732900002,Honeybourne,-0.7915986241609999,-0.287918066427,50.2802811578,cat 4,category 1,Honeybourne
53.291384225,-2.97335106727,Hooton,-0.464349333045,3.2978153832999997,132.569017431,cat 3,category 29,Hooton
53.57752427729999,-2.53873726851,Horwich Parkway,-1.64707418313,23.731850260999998,-21.9247871128,cat 4,category 26,Horwich Parkway
53.7643321629,-0.858576958234,Howden,-1.84053364843,-14.3936519267,-54.73830461520001,cat 1,category 17,Howden
52.975613713,-0.110070489888,Hubberts Bridge,-0.13011888955999998,-2.45001514763,-9.07206158612,cat 1,category 29,Hubberts Bridge
54.1742867587,-0.314771894025,Hunmanby,-2.48994760197,-15.235961998199999,41.1355889658,cat 1,category 20,Hunmanby
53.465120791400004,-2.08657213665,Hyde North,0.6030340907289999,8.17652833921,-56.548084022299996,cat 1,category 6,Hyde North
51.887102078199995,0.922172490985,Hythe,-1.30529883775,13.9004136468,67.496673059,cat 3,category 29,Hythe
53.2768280087,-2.81690144282,Ince & Elton,-0.47830904056699997,-15.555609125999998,-22.389327286900002,cat 4,category 24,Ince & Elton
57.286266828,-2.37322776286,Inverurie,0.8069030939830001,-22.7757959057,-26.3815854055,,category 21,Inverurie
55.61081909520001,-4.6755387076499995,Irvine,-0.5580375712210001,-4.11012803963,-40.719337156,cat 1,category 7,Irvine
55.8822802517,-4.32361320122,Jordanhill,0.9480236048370001,-2.57360066768,167.931909669,cat 2,category 16,Jordanhill
53.8675526468,-1.8966321472499998,Keighley,-0.7026690164480001,-0.171478204879,-22.1034163098,cat 3,category 17,Keighley
55.8140954252,-4.32433497898,Kennishead,0.741161679097,7.06862729646,-210.62521079599998,cat 4,category 29,Kennishead
53.0860676601,-2.2456341748199997,Kidsgrove,-1.19676548653,22.4640049973,-168.986522872,cat 2,category 11,Kidsgrove
51.732104755,-4.71515561274,Kilgetty,-0.633515205904,-10.6809029075,19.876516351,cat 2,category 25,Kilgetty
55.6550521744,-4.70995647208,Kilwinning,1.3982586385,6.185422444369999,-28.9394784969,cat 4,category 0,Kilwinning
55.8197350968,-4.2506786039,King's Park,-0.699701585583,7.097746787589999,-20.0331762631,cat 2,category 22,King's Park
53.4870923692,-2.90224552094,Kirkby (Merseyside),-0.322975395328,-0.566327557281,-97.0063023334,cat 2,category 24,Kirkby (Merseyside)
55.387111187399995,-3.99986105411,Kirkconnel,-1.21459462632,-16.5538041147,28.682393765100002,cat 3,category 18,Kirkconnel
53.441946163699996,-2.97927411227,Kirkdale,-0.275369673374,-3.5316384984300004,84.9903361164,cat 1,category 14,Kirkdale
55.81367908359999,-4.1675704746,Kirkhill,0.0971383403104,-4.69978210636,81.9365070658,cat 3,category 11,Kirkhill
53.3365847755,-1.24082298354,Kiveton Park,-0.5538116011559999,,-151.28816139399999,,category 17,Kiveton Park
51.866700016,-0.186103919399,Knebworth,-1.23152845497,7.849490323210001,-160.324924172,cat 2,category 29,Knebworth
53.802922221,-2.45410475015,Langho,-0.11958434783500001,-5.95710579288,-6.58213230791,cat 1,category 28,Langho
53.0174652033,-1.32961384287,Langley Mill,0.554003098768,6.137263047459999,174.345081443,cat 4,category 1,Langley Mill
55.8209129599,-4.27700791938,Langside,0.73895491881,-13.2961266071,159.570995952,cat 3,category 0,Langside
50.855722925600006,-3.80895531813,Lapford,0.373331693031,-2.05825102272,-101.83935219600001,cat 1,category 22,Lapford
51.4600217842,-2.5629575674000002,Lawrence Hill,0.583534591708,6.348164219330001,-157.422313819,,category 23,Lawrence Hill
52.4811356888,-1.7860094304799998,Lea Hall,-1.41470798562,4.474926341640001,137.765828626,cat 1,category 11,Lea Hall
53.7956627697,-1.55090953253,Leeds,-0.127982291339,0.902487651998,-55.0750832707,cat 3,category 13,Leeds
50.1830880734,-5.43654228643,Lelant,1.34792611825,2.84439365952,-113.29581171,cat 4,category 11,Lelant
53.443378064099996,-2.19341886472,Levenshulme,-1.20856850892,-12.6344064031,106.209560877,cat 3,category 20,Levenshulme
50.4469496126,-4.46760737607,Liskeard,1.55914648743,5.89536529976,56.2317165859,cat 4,category 18,Liskeard
51.750748250200004,-0.808621758697,Little Kimble,0.284657550978,11.120217540499999,-148.772620126,cat 3,category 14,Little Kimble
50.8127054382,-0.548824038087,Littlehampton,0.789753016672,12.8757185031,-38.0461044521,cat 4,category 15,Littlehampton
53.4066906935,-2.97939666068,Liverpool Central,-1.26374751634,-10.8256661524,98.3304852136,cat 1,category 4,Liverpool Central
52.33556351560001,-3.21398425815,Llanbister Road,-0.12686918603800001,-4.0917186981,-36.622425456900004,cat 4,category 26,Llanbister Road
52.9207871984,-4.05622137109,Llandecwyn,-0.562983480764,-0.8575252301109999,-84.7329349642,cat 2,category 8,Llandecwyn
53.320507177799996,-3.83013662577,Llandudno,-1.55448227407,11.510063614000002,148.48172446700002,cat 2,category 20,Llandudno
51.6615713471,-3.88309758864,Llansamlet,-1.13356389195,-5.39144125081,-100.365733889,,category 10,Llansamlet
51.9610722946,-3.8735029651199997,Llanwrda,0.7588485041869999,5.9637020526699995,-23.7137177889,cat 1,category 8,Llanwrda
52.669331706,-4.08572994164,Llwyngwril,1.25303258001,3.56101530625,-183.457877185,cat 3,category 19,Llwyngwril
56.882881294499995,-5.66538935429,Lochailort,1.2966091529700001,,62.436247495500005,,category 17,Lochailort
54.017016274899994,-2.2552115428099997,Long Preston,0.9251789235060001,-12.948170366700001,-136.94899646,cat 2,category 9,Long Preston
54.5891310088,-1.03101656921,Longbeck,-1.3186764254899999,1.75431709433,-46.9215175334,cat 4,category 4,Longbeck
53.043017752299995,-2.21861626398,Longport,-0.781141933019,7.47743540979,-107.529613236,cat 3,category 25,Longport
53.5723032288,-2.49694679928,Lostock Parkway,-1.40356662474,3.75238124215,-36.738747819000004,cat 4,category 21,Lostock Parkway
50.4074711388,-4.66682676174,Lostwithiel,-1.3619468751100001,12.807275349600001,36.978181735,,category 5,Lostwithiel
51.882670351,-0.410598333973,Luton,-0.19276037276500002,-8.05272164022,24.5189205932,cat 3,category 24,Luton
50.7608768204,-1.5377436292299997,Lymington Town,-2.03327515867,,-31.908417978400003,cat 3,category 24,Lymington Town
53.7395042754,-2.96404476125,Lytham,0.20353752965,5.63093681873,150.523240916,cat 1,category 8,Lytham
52.5958584359,-3.8542626514099996,Machynlleth,0.415992270885,-5.51869326868,7.642076937560001,cat 1,category 24,Machynlleth
,-2.93228210104,Maghull,-1.4097287868200001,0.624338581389,62.342834107899996,cat 3,category 24,Maghull
53.4774645205,-2.2325226570299996,Manchester Piccadilly,1.1774413210899999,-11.9301171502,87.3056902707,cat 1,category 27,Manchester Piccadilly
53.4888122377,-2.24388817657,Manchester Victoria,0.810244750219,-11.3840272512,-88.1235104414,cat 1,category 8,Manchester Victoria
51.9495523787,1.0466712047,Manningtree,0.8423256926809999,-7.68110717912,143.849715204,,category 11,Manningtree
51.659389443500004,-4.79004753188,Manorbier,0.7024642468960001,1.01134843608,-121.912719488,cat 3,category 2,Manorbier
54.9718706666,-1.60654618681,Manors,-2.66942727635,-18.0389113283,17.6804483993,cat 3,category 21,Manors
53.1641515857,-1.20273502385,Mansfield Woodhouse,-1.3762009584600001,-8.871765701589998,131.925280106,cat 2,category 13,Mansfield Woodhouse
51.385610793000005,1.37187304371,Margate,-0.35885994848999997,3.31463884943,12.3484717957,cat 3,category 3,Margate
53.384453296800004,-0.337103220703,Market Rasen,3.635471849,-0.184387082834,-53.0975029153,cat 3,category 15,Market Rasen
51.1706578166,1.3488595994400001,Martin Mill,-1.04583377397,6.677154678130001,-157.47298702,cat 3,category 8,Martin Mill
54.7092770544,-3.5028468108199995,Maryport,0.251608227498,9.10316641836,-113.285982284,cat 1,category 12,Maryport
54.9590176528,-1.66577983049,MetroCentre,0.921294265034,-9.3702457405,223.06300906799999,,category 2,MetroCentre
53.4907932763,-1.2931616643500001,Mexborough,-2.0326254761900002,-11.5487583485,16.0244848854,,category 6,Mexborough
53.360496214499996,-2.08372977854,Middlewood,0.26930602476599996,-13.2704537743,184.75885342900003,,category 4,Middlewood
50.9107797779,-1.43484685269,Millbrook (Hampshire),0.29450844565900003,-2.51976211597,93.6433966165,,category 18,Millbrook (Hampshire)
55.8247862203,-4.53381580781,Milliken Park,0.0878394583885,-9.934825006930001,-143.764074639,cat 4,category 24,Milliken Park
53.549970425299996,-2.17073761604,Mills Hill,-0.315776827378,-22.8484491984,-113.783767035,cat 1,category 21,Mills Hill
55.941036026099994,-4.31528137649,Milngavie,-1.74022241068,-1.18278538466,-156.621768225,cat 2,category 18,Milngavie
52.0329516943,-0.774605326132,Milton Keynes Central,0.36223535406199997,0.35679606034,-114.001924433,cat 3,category 28,Milton Keynes Central
51.944143898,1.08166821093,Mistley,-0.321155779466,-8.16289538668,-7.52707573212,cat 4,category 6,Mistley
56.479797102700005,-2.8181595165400006,Monifieth,0.5006883416260001,-3.4938768399,78.67946084229999,cat 3,category 26,Monifieth
51.736073405,-0.829137354055,Monks Risborough,-0.699660360262,9.58629397229,82.7814226711,cat 1,category 21,Monks Risborough
51.468347871999995,-2.58861358946,Montpelier,-0.633003181918,-6.60332389388,86.41830153379999,,category 11,Montpelier
53.5167663812,-2.35195431741,Moorside,-0.162919350044,12.9623814018,125.715901446,,category 0,Moorside
50.701287469899995,-2.31762861269,Moreton (Dorset),0.9955051485940001,-5.57716753219,-229.713776787,cat 4,category 3,Moreton (Dorset)
53.764476736499994,-2.94337844202,Moss Side,0.0703754841508,11.012896695699999,-62.2459010512,cat 4,category 13,Moss Side
53.5148955247,-2.04271447729,Mossley (Greater Manchester),-1.7253457251400002,3.4125246477599998,-90.81305197469999,cat 4,category 0,Mossley (Greater Manchester)
53.3773727719,-2.9154824779900004,Mossley Hill,1.2807582003,20.6927713248,126.832435414,cat 1,category 15,Mossley Hill
57.5144904541,-4.45536466165,Muir Of Ord,0.726782610933,0.968166113515,49.829205405699994,cat 3,category 10,Muir Of Ord
55.9334932966,-3.07391842482,Musselburgh,-1.04902612447,-6.24604725686,60.0921158218,cat 3,category 16,Musselburgh
54.0108688512,-0.386623833905,Nafferton,-0.45911583895499997,-8.88772951729,98.8340385326,cat 4,category 16,Nafferton
52.1514259266,1.0567153334700001,Needham Market,-0.0777500041843,-11.3427993775,19.4575336428,cat 4,category 14,Needham Market
55.7823472215,-4.42770677555,Neilston,0.6672132958370001,-9.70402671163,39.3683851559,cat 1,category 21,Neilston
53.364570401099996,-2.00732410352,New Mills Central,-0.150211150409,-11.6474149567,81.66505376399999,cat 2,category 14,New Mills Central
51.665532557,-3.1431383026099997,Newbridge,-0.321756073534,-3.0080291190099997,84.8945570342,cat 1,category 13,Newbridge
54.965845115600004,-1.6191783966100002,Newcastle,1.4104494730500001,-0.512999052491,-45.11160089689999,,category 3,Newcastle
55.9244371626,-3.0860864589099997,Newcraighall,0.792746403236,-5.27438862953,-67.9271064676,cat 4,category 5,Newcraighall
50.788615962200005,0.05475703613149999,Newhaven Harbour,2.32038971895,-2.34057588793,-76.4120735172,,category 20,Newhaven Harbour
50.7954209568,0.0539202587956,Newhaven Town,0.71317431833,-4.5645576305,131.507691014,cat 2,category 25,Newhaven Town
52.2364872471,0.404811324569,Newmarket,-2.7354878588,-11.862188861300002,154.557247762,cat 3,category 28,Newmarket
51.5901400976,-3.00006794148,Newport (Gwent),-0.685071976611,16.7857541132,18.634696916099998,,category 1,Newport (Gwent)
50.529593107299995,-3.5984898065099995,Newton Abbot,-0.36332195070600004,7.284310820669999,-33.797032849699995,cat 4,category 19,Newton Abbot
54.6137041242,-1.59049678638,Newton Aycliffe,1.7332769610799998,-2.24137312541,-160.490203075,cat 3,category 26,Newton Aycliffe
50.778178553000004,-3.58815791173,Newton St.Cyres,-2.2616472996,20.258161125999997,49.2481951642,cat 1,category 12,Newton St.Cyres
55.4746394168,-4.62776434937,Newton-On-Ayr,0.17053031757800002,2.54047983141,117.56569254799999,cat 2,category 3,Newton-On-Ayr
52.5123122055,-3.3113916947,Newtown,-1.8442630245400002,2.98026248061,-21.7231139121,,category 23,Newtown
51.4762969905,-3.2019733816600002,Ninian Park,2.30088843895,4.78133105665,-125.255209549,cat 4,category 22,Ninian Park
55.8119779724,-4.36466978559,Nitshill,-1.01846131134,-6.08286006776,-159.13758350700002,cat 1,category 2,Nitshill
50.825685686499995,0.389156300696,Normans Bay,0.9536821870799999,-15.4752261705,-85.9105550458,cat 1,category 15,Normans Bay
52.672840718900005,-0.734005149747,Oakham,-0.927307838354,-0.9583845702420001,-117.519070394,cat 1,category 12,Oakham
51.149844789899994,-0.33588772641900005,Ockley,-0.6284918854379999,0.263246006525,40.1288835496,cat 2,category 22,Ockley
52.471246353999994,-2.05648549271,Old Hill,1.85239668344,-8.221825153069998,146.651782802,cat 3,category 26,Old Hill
54.3016601308,-2.7268071865400003,Oxenholme Lake District,-0.6535908363,3.49482614643,57.67668750399999,cat 1,category 12,Oxenholme Lake District
51.754040591099994,-1.27270885052,Oxford,0.33401200564100003,17.3237634631,22.780051005900003,cat 4,category 9,Oxford
51.3369266914,-0.36063451643700006,Oxshott,-1.52488596516,2.3460941903,79.6747489587,,category 1,Oxshott
,-2.5576396627799998,Padgate,-1.02990019275,-2.7860641429500004,-68.7124117038,cat 4,category 18,Padgate
53.9577839774,-1.53362539449,Pannal,0.9637393946709999,6.281979390880001,-110.70323073799999,cat 3,category 19,Pannal
50.3553248405,-4.704675257330001,Par,-0.748439236275,-8.33737770121,97.4989714749,cat 4,category 21,Par
53.5913753031,-2.7717415897400004,Parbold,0.6827652116130001,12.362558579100002,-133.534311068,cat 2,category 11,Parbold
51.52323503310001,-2.5624398255200003,Patchway,-2.2909917593299998,-10.2645145286,137.797022729,cat 2,category 24,Patchway
52.2739797393,-3.32251841626,Pen-Y-Bont,-0.992745367235,7.9556142693,-83.4386716973,cat 2,category 5,Pen-Y-Bont
51.521775543400004,-3.50384529383,Pencoed,0.0556898974198,-13.650488401199999,44.2051371331,cat 4,category 16,Pencoed
52.7243958121,-2.1202584617599998,Penkridge,1.1992837297399999,16.6997073287,-45.1826337674,cat 3,category 5,Penkridge
53.2708450329,-3.92384282698,Penmaenmawr,-0.0639467832385,15.816096706300002,-162.470535929,cat 3,category 26,Penmaenmawr
52.5730550613,-0.247773603013,Peterborough,-1.4515989868,-4.056949987159999,-71.0786687181,cat 4,category 26,Peterborough
56.7024928134,-3.7360599057199995,Pitlochry,-1.67965633803,-1.7268457170700002,33.0988449134,cat 3,category 9,Pitlochry
50.3773290975,-4.148291159369999,Plymouth,2.2575494592200003,-3.14127525889,-126.96616927299999,cat 1,category 25,Plymouth
55.8253500276,-4.2873259490599995,Pollokshaws East,0.973841775499,-7.688876790269999,-90.83850035430001,cat 2,category 16,Pollokshaws East
53.0655269709,,Pont-y-Pant,-0.551805971964,-13.5994148045,-136.907623423,cat 2,category 8,Pont-y-Pant
53.6987193092,-1.304754561,Pontefract Monkhill,0.8359826339049999,5.473223587480001,-59.2277294004,,category 5,Pontefract Monkhill
53.693146680299996,-1.32044503417,Pontefract Tanshelf,0.20906322290600002,-10.2722649423,75.6954405618,,category 11,Pontefract Tanshelf
51.697507736999995,-3.0148048821499995,Pontypool and New Inn,0.446696614625,-13.4119422642,102.340305573,cat 2,category 17,Pontypool and New Inn
51.5994975409,-3.34188382119,Pontypridd,0.871477304465,2.08727154904,-82.6303716349,cat 1,category 2,Pontypridd
50.7178615325,-1.9828789433400003,Poole,0.403509188687,-13.684026644500001,30.0357730004,cat 2,category 8,Poole
52.9313722287,-4.14153657635,Porthmadog,-0.518826506903,-4.05335080337,-104.985947886,cat 4,category 22,Porthmadog
50.956820622600006,-3.9505718772800003,Portsmouth Arms,-0.468588210214,11.129458908800002,-157.61283275,,category 8,Portsmouth Arms
53.424507113800004,-2.79821084796,Prescot,-0.9127026778899999,,-28.7209164394,,category 11,Prescot
53.292481107700006,-2.14652957788,Prestbury,0.5020797725230001,-6.619253080240001,-187.780102261,cat 4,category 0,Prestbury
54.96618460609999,-1.8636148351900002,Prudhoe,1.0089991334100001,-18.2180912027,-73.7240967691,cat 3,category 9,Prudhoe
51.4138467981,0.7511408273469999,Queenborough,-0.542715774322,-6.06563484024,-132.511561118,cat 1,category 0,Queenborough
51.683529112399995,-1.2411487719299998,Radley,0.21502059274500002,9.13977944566,7.18928521988,cat 4,category 4,Radley
54.356227669700004,-3.4102933964899997,Ravenglass,-1.42887472463,-20.4704918358,-108.47870786700001,cat 4,category 21,Ravenglass
54.6157998816,-1.06816736606,Redcar Central,-0.438056227508,16.451365537,140.388540183,,category 5,Redcar Central
51.2385790238,-0.16579249064999999,Redhill,0.6833111633660001,-0.191826820665,39.9059971405,cat 2,category 2,Redhill
51.46875373100001,-2.59725670472,Redland,-0.921088891496,-6.95666314232,-42.7101737415,cat 2,category 22,Redland
51.7578342328,-3.2904288819200005,Rhymney,-0.487839127269,6.66703288648,35.1540003451,cat 2,category 6,Rhymney
53.6111589321,-2.15367839943,Rochdale,2.9121652902900004,7.8433215584200004,12.2447714055,,category 3,Rochdale
53.3947925146,-2.07657908466,Rose Hill (Marple),-1.01355732767,14.8303200428,101.256233909,,category 9,Rose Hill (Marple)
53.6332364695,-2.8095569297099994,Rufford,1.7369922192700002,-6.46059744296,-59.0517057492,cat 1,category 26,Rufford
52.3787524675,-1.2492708405,Rugby,1.33560409016,22.736579128200002,-15.277543478499998,,category 19,Rugby
54.4707151067,-0.626596772646,Ruswarp,-1.59914320759,-1.13066724672,-55.812231401000005,cat 1,category 25,Ruswarp
50.952901997,0.733645506599,Rye,-0.171419904209,-5.39569844227,48.1329605313,cat 3,category 15,Rye
51.767732909799996,0.00543782250994,Rye House,-0.36830983590599997,11.2327626798,-36.0588641795,cat 1,category 7,Rye House
51.0740128058,-1.79819359028,Salisbury,1.2988570149,5.572617269049999,140.83876368100002,cat 3,category 10,Salisbury
50.407984435,-4.20674915677,Saltash,0.45117888970700004,-20.968529754200002,12.7068734813,cat 1,category 19,Saltash
55.633329805900004,-4.782821050290001,Saltcoats,0.136799499892,2.89994332238,63.6946575097,cat 1,category 29,Saltcoats
52.5083427363,-2.01299556334,Sandwell & Dudley,-0.185089844536,8.10011224441,85.24655377229999,cat 2,category 5,Sandwell & Dudley
51.2701067975,1.3423248285799998,Sandwich,0.36957171015600004,-10.9399096783,-39.7788511204,cat 2,category 22,Sandwich
52.126642528999994,-0.281482156561,Sandy,0.733665220987,-16.8503723979,14.436757004,cat 3,category 21,Sandy
55.3701562051,-3.9251500097500003,Sanquhar,0.35462156682999996,3.46560939506,-128.874360177,cat 3,category 2,Sanquhar
51.535737799799996,-3.5872846727999996,Sarn,0.8326125987209999,7.3051347793399986,117.094112083,cat 1,category 17,Sarn
51.7221252715,-4.7189014524,Saundersfoot,-0.258128593596,10.5623027215,-28.368025427600003,cat 1,category 13,Saundersfoot
51.676156557,-0.825837921278,Saunderton,0.741328293415,-0.555827644292,46.2302843089,cat 3,category 29,Saunderton
53.4658145597,-3.00595898785,Seaforth & Litherland,-0.936181419694,18.2108403663,-79.00765678,,category 0,Seaforth & Litherland
54.24038291310001,-0.416430075402,Seamer,-0.577994311597,9.98708968869,32.6538736778,cat 4,category 1,Seamer
53.779027971000005,-1.0663127747499999,Selby,0.613814621022,-11.7331805012,53.836967351000006,cat 4,category 0,Selby
51.2778777726,0.940760386693,Selling,0.948012182629,10.0188814215,-85.4614234665,cat 4,category 27,Selling
51.5832451451,-2.7765680432499997,Severn Tunnel Junction,-0.21289679727000002,-6.51599432706,-102.79437265600001,cat 4,category 15,Severn Tunnel Junction
51.0210483821,-1.3285022158700002,Shawford,-0.705329875131,3.27602213455,61.3196898242,cat 2,category 12,Shawford
51.396615003,-0.448200998543,Shepperton,-2.0358290545599997,-5.3075884921,-35.8714185555,cat 2,category 19,Shepperton
53.7975563959,-1.2329047529000001,Sherburn-In-Elmet,1.1556786355600002,8.032282752510001,-5.26897079557,cat 1,category 8,Sherburn-In-Elmet
52.6661644091,-2.37028793385,Shifnal,0.252647603914,-7.71752782168,-43.4778019847,cat 3,category 13,Shifnal
53.8367697307,-1.76815113625,Shipley,-0.010938254846099999,-17.0728941449,30.5156651229,,category 3,Shipley
53.2059043469,-1.20922201002,Shirebrook (Derbys),-0.0443868028388,-6.27177733105,-51.7626695179,,category 10,Shirebrook (Derbys)
51.4840908997,-2.67868069455,Shirehampton,-1.3363897264700002,-25.1464627227,-159.72140791700002,cat 3,category 22,Shirehampton
53.324014363,-1.16230058152,Shireoaks,0.297363688453,-23.5979642744,17.9942771729,cat 3,category 9,Shireoaks
52.73189060399999,-1.11018994021,Sileby,-0.0284522862372,9.98095694385,40.4037329032,cat 1,category 18,Sileby
53.534557703000004,-1.56393486984,Silkstone Common,0.0394149369649,11.5995380347,-116.986672465,cat 4,category 15,Silkstone Common
52.495483883,-1.96895117755,Smethwick Rolfe Street,-1.29548097878,8.78784084522,-83.98096694659999,cat 2,category 12,Smethwick Rolfe Street
53.693057695,-1.02724946046,Snaith,1.1350377650499999,-12.2383981507,68.6380015357,cat 3,category 21,Snaith
51.3299085849,0.44851127559199994,Snodland,1.10154259237,-14.1208101584,126.25915471,cat 3,category 22,Snodland
51.383320767700006,0.376913192251,Sole Street,-1.6702811196399998,-1.0479386551899998,-17.5112789453,cat 2,category 19,Sole Street
54.5838530741,-1.1763570144600002,South Bank,-1.0773073122799999,-2.94933884264,5.089676771230001,cat 1,category 14,South Bank
55.9362902502,-3.30107491128,South Gyle,-0.9384370434839999,13.8824001276,-45.678622411300005,cat 1,category 25,South Gyle
53.7761261359,-3.05031703185,Squires Gate,-0.346299764353,30.645262242199998,67.473688117,cat 3,category 22,Squires Gate
53.7541044711,-3.02959569546,St.Annes-On-The-Sea,-0.6710426495790001,-7.454649534750001,85.538622474,,category 6,St.Annes-On-The-Sea
50.3983745136,-4.9413679352,St.Columb Road,0.12582226586200002,0.0530051549414,105.990275488,cat 4,category 22,St.Columb Road
53.4558548066,,St.Helens Central,-0.77264529492,1.35472698843,-45.024164282799994,cat 4,category 21,St.Helens Central
50.2090280755,-5.47779905342,St.Ives,0.268938576531,-11.2523218553,-106.887427768,cat 2,category 11,St.Ives
50.85540511520001,0.5611161548210001,St.Leonards Warrior Square,0.619781697709,-4.35099483656,-138.092209293,cat 2,category 19,St.Leonards Warrior Square
53.375588503500005,-2.95392541865,St.Michaels,0.360286736607,2.80963909743,133.264999632,cat 1,category 21,St.Michaels
52.8035906736,-2.12307310909,Stafford,-0.9970300467450001,-9.70710758113,156.285055252,,category 15,Stafford
53.4849057976,-2.0707892770700003,Stalybridge,0.0371574823882,6.45475270906,32.104569768400005,,category 5,Stalybridge
52.647385757100004,-0.48050017773000003,Stamford,2.2899444011,8.079036980089999,-18.4705802454,,category 6,Stamford
51.1717529766,0.549638780781,Staplehurst,-0.935343590325,7.93375087772,3.1123240994200003,cat 3,category 9,Staplehurst
52.4845474686,-1.8097748049400002,Stechford,0.207323910214,20.8928632739,115.010677725,,category 24,Stechford
55.8905288013,-4.13883011224,Stepps,1.18008727395,,-34.9928575478,cat 3,category 24,Stepps
51.7865915746,-0.7834661705920001,Stoke Mandeville,-0.62730511974,-8.47105159582,108.247591465,cat 1,category 4,Stoke Mandeville
56.9668219828,-2.22529705252,Stonehaven,0.727739190037,2.28845224548,-151.003996914,,category 3,Stonehaven
52.4474933824,-2.13553875046,Stourbridge Junction,-0.7904785602259999,4.5327374673100005,4.8702296155400004,cat 4,category 19,Stourbridge Junction
52.2071911118,-1.730913056,Stratford Pkway,0.441505292533,6.033741974319999,74.7131252407,cat 4,category 6,Stratford Pkway
53.3740491636,-2.03235175099,Strines,-1.0190951238700001,4.66150813933,15.558111152999999,cat 1,category 19,Strines
52.0824306274,-3.6856559731400003,Sugar Loaf,-0.9634127233059999,-31.4437894437,105.574948105,cat 3,category 8,Sugar Loaf
52.5643141574,-1.8269119101099998,Sutton Coldfield,-0.644251016136,-0.847073109641,92.35282555100001,cat 1,category 27,Sutton Coldfield
50.7849216277,-1.60864632951,Sway,0.558944986624,14.976324859000002,-12.578181131900001,,category 4,Sway
57.8145569613,-4.0518044068,Tain,-0.0902321988897,-12.449407584100001,101.245655606,cat 4,category 17,Tain
52.7725255463,-4.0973326546,Talybont,1.6074939183399999,-8.64241838597,79.4560230644,cat 4,category 20,Talybont
52.6931225998,-2.45122720147,Telford Central,0.99529886889,3.5231362588499997,45.1395719062,cat 3,category 15,Telford Central
51.0002331035,-2.4203496803999998,Templecombe,-0.363579358288,1.70496904715,-36.554493634800004,,category 27,Templecombe
51.3936821455,-1.24063429689,Thatcham,0.8092718403010001,-4.33110200853,-69.4299193954,cat 3,category 4,Thatcham
53.4364338262,-2.7612534602900003,Thatto Heath,0.413108502849,8.74992283523,53.6808870034,,category 21,Thatto Heath
52.5051917918,-1.96459830406,The Hawthorns,0.48412775448600004,7.34895419387,86.93410617100001,cat 3,category 10,The Hawthorns
53.1231282525,0.19979073897100003,Thorpe Culvert,-0.9291646410719999,-4.36661074958,6.81711221003,,category 10,Thorpe Culvert
58.5901018922,-3.52616860023,Thurso,0.255829627321,6.6531210535500005,-55.29403337,,category 6,Thurso
52.2497886857,0.808155730002,Thurston,-0.8989778846709999,14.086654496,-64.3894959065,cat 2,category 24,Thurston
52.394768864899994,-1.60464020049,Tile Hill,0.125437047356,7.18458316572,-32.6680281279,,category 20,Tile Hill
51.6468643857,-3.48543403589,Ton Pentre,-0.558489021304,,-78.0531518738,cat 3,category 14,Ton Pentre
51.5471084639,-3.59424259819,Tondu,-0.408073278583,1.30527084554,-66.1804368856,cat 4,category 20,Tondu
51.6192280658,-3.4483466296599996,Tonypandy,0.30476206133699996,23.556406620900002,4.55498266945,cat 1,category 11,Tonypandy
50.435689626599995,-3.6882636792000003,Totnes,-0.000585681411883,-2.0321527328599998,-25.7527654548,cat 1,category 10,Totnes
50.917212919399994,-1.48420292382,Totton,-0.029462050857000002,13.1075492324,3.1922452253299998,cat 2,category 13,Totton
51.5925031891,-3.3243541081200005,Trefforest,0.216316184622,5.31387565077,67.4838703246,cat 2,category 12,Trefforest
51.567980562799995,-3.2898064598400003,Trefforest Estate,0.12506276643300002,14.8614239691,62.5798968239,cat 1,category 14,Trefforest Estate
51.6570394146,-3.5055006221699996,Treorchy,-0.270507296997,19.8233618647,-144.01931017799998,cat 3,category 19,Treorchy
51.9757784004,1.3205732863200002,Trimley,-0.8311045837700001,1.22631753506,49.467107883500006,cat 4,category 21,Trimley
50.264160678500005,-5.06149282997,Truro,0.460171665358,-2.3976193095400005,-118.206238661,cat 3,category 15,Truro
56.88391466,-4.7014589842,Tulloch,0.895094946031,-3.9864819083099996,53.9499299374,cat 2,category 12,Tulloch
52.8634150914,-1.6824629877700001,Tutbury & Hatton,-0.415793844982,-5.5419561274,-79.313709833,cat 4,category 5,Tutbury & Hatton
51.475338389099996,-0.8636861921250001,Twyford,1.26213056643,2.6142397715,-39.035110087199996,cat 1,category 28,Twyford
52.5853759157,-4.09207344159,Tywyn,0.023436894591399998,-1.11284742565,3.5145034574,,category 10,Tywyn
55.8232691128,-4.08596539635,Uddingston,-1.52366916387,-4.0095053288699996,10.3006789543,cat 3,category 5,Uddingston
53.852769351899994,-1.2160097052399998,Ulleskelf,1.96921475694,3.0412922734,196.85358389799998,cat 3,category 24,Ulleskelf
52.451959717799994,-1.9368298117400002,University,-0.8689273852349999,-3.68466861476,127.668388174,cat 1,category 9,University
51.3094735292,-0.0780262727267,Upper Warlingham,1.47943742574,4.27975502452,-131.74276493,cat 1,category 18,Upper Warlingham
53.2811000003,-4.56350780777,Valley,0.0031574044653299997,9.12577724588,4.98134371161,cat 1,category 8,Valley
51.4018700766,-0.560518372479,Virginia Water,-0.343124396013,12.3114683298,-42.5295948744,cat 3,category 15,Virginia Water
53.6782198734,-1.5021251379700002,Wakefield Westgate,0.731429275791,6.03382200864,-8.82682641942,,category 7,Wakefield Westgate
52.58255421649999,-1.98844514585,Walsall,0.460949075875,16.8718483281,-57.7165515338,,category 23,Walsall
53.7007760232,-2.10811047907,Walsden,-0.507760028796,-9.40775898434,-127.37169430600001,cat 3,category 0,Walsden
53.4562611325,-2.965446895,Walton (Merseyside),0.707138471728,8.24940618482,151.67405105,cat 1,category 6,Walton (Merseyside)
51.8461245141,1.26759396105,Walton-On-Naze,0.508955449599,-4.4359382501699995,11.471997457,cat 3,category 3,Walton-On-Naze
51.3733497721,-0.413140646273,Walton-On-Thames,-0.407538422171,-5.80699562282,-22.977890606,cat 1,category 8,Walton-On-Thames
51.244541221300004,-0.666154500165,Wanborough,0.19432980363400001,14.3608913577,66.9548143747,cat 3,category 6,Wanborough
51.807611423599994,-0.028985116485700003,Ware,0.316289955088,,171.029104455,cat 2,category 24,Ware
50.6940679777,-2.11200725036,Wareham,-1.85617593035,9.5553493624,111.497947845,cat 4,category 11,Wareham
52.2864967094,-1.58288109088,Warwick,0.012583642825,3.8407064358599996,-0.273057061481,cat 4,category 5,Warwick
52.261292456599996,0.195568172916,Waterbeach,-0.196646292915,-13.6844196277,-123.73465385799999,cat 2,category 21,Waterbeach
51.8521801971,1.11241197524,Weeley,0.953293380721,2.53773545395,39.9707594451,cat 1,category 9,Weeley
52.700947148800005,-2.5164212517099998,Wellington,-0.382404062181,-0.386146883929,-141.355220896,cat 3,category 12,Wellington
52.6603319681,-3.1381708277900002,Welshpool,1.17456662435,-5.23163167346,67.0337452505,,category 8,Welshpool
51.8000116547,-0.20284982314599997,Welwyn Garden City,1.0942655462200002,15.1024099275,5.475062078740001,cat 3,category 2,Welwyn Garden City
52.8561735851,-2.71957240271,Wem,0.202059717128,-1.9313601365000002,-93.75003502950001,cat 1,category 17,Wem
51.7611243933,-0.747201450324,Wendover,-0.0443541566149,-1.6126046642299998,-52.50721042479999,cat 2,category 21,Wendover
51.568130454700004,0.336684882516,West Horndon,1.1235860422,7.426117660910001,-62.3095714297,cat 1,category 24,West Horndon
55.69711617390001,-4.85094018767,West Kilbride,1.23667254209,11.382628750699999,-41.1365170578,cat 2,category 5,West Kilbride
,-3.18469291658,West Kirby,1.35525180794,-2.56484651029,129.457907155,cat 2,category 3,West Kirby
52.935301879300006,,West Runton,0.5297020504959999,-12.684382147200001,-73.0244498199,cat 3,category 0,West Runton
55.9145596574,-3.28513116425,Wester Hailes,-1.04606633755,-3.6184060116100003,-51.29094535270001,cat 2,category 18,Wester Hailes
52.080649694099996,1.16719512425,Westerfield,0.672843942343,-10.7930824521,49.413865413500005,cat 4,category 22,Westerfield
54.884193943,-2.83234395976,Wetheral,-0.0655603161972,-12.036527606500002,42.0886008192,cat 4,category 13,Wetheral
53.0833532371,-1.50318997534,Whatstandwell,0.661700456131,-12.7538976822,-43.0055483623,cat 4,category 4,Whatstandwell
53.414560899399994,-2.7935109401599996,Whiston,-0.786997568502,-16.0874244256,-2.9822952712,,category 16,Whiston
54.4836172101,-0.611268649367,Whitby,-0.08804324548879999,10.5350307921,-42.0417716455,cat 1,category 7,Whitby
52.969008484899994,-2.67059616083,Whitchurch (Salop),-0.083355914152,19.9610523794,-153.50712354700002,cat 1,category 1,Whitchurch (Salop)
,-3.2220224047400006,Whitchurch (South Glamorgan),-0.3905465792,3.7654833643699996,-86.2718162342,cat 2,category 0,Whitchurch (South Glamorgan)
51.8395737266,0.5943191708519999,White Notley,-1.28765760244,-5.84267094493,-82.1841207183,cat 2,category 12,White Notley
55.7902997832,-4.30887919659,Whitecraigs,0.7154425096860001,,52.474957173199996,cat 4,category 19,Whitecraigs
54.553418019300004,-3.5881851746599995,Whitehaven,-1.35723024771,4.046461305899999,186.404879838,cat 3,category 22,Whitehaven
51.8183362578,-4.61469863509,Whitland,-0.7798891379649999,15.5583433569,-46.2320492363,cat 3,category 10,Whitland
53.6994169884,-1.16100099741,Whitley Bridge,-1.42184827519,-5.368824698559999,45.4619563193,cat 1,category 19,Whitley Bridge
52.6107565366,-1.68030485743,Wilnecote,-1.19452195847,-2.7694962660400004,11.6565911471,cat 2,category 0,Wilnecote
51.28948415520001,-0.0493165954746,Woldingham,-0.329184652619,1.17365982386,-39.002225041100004,cat 1,category 1,Woldingham
52.5878416148,-2.12099053281,Wolverhampton,0.495238742094,8.03618181697,-3.9893876690699996,cat 2,category 16,Wolverhampton
52.0899594562,1.3174430772499999,Woodbridge,-1.02906355919,5.540981292490001,-27.3198843831,cat 4,category 26,Woodbridge
53.363289024,-1.3568840501100001,Woodhouse,-1.7348300039500002,-4.20084431135,-96.3679992518,cat 2,category 13,Woodhouse
50.8988775272,-1.37555111336,Woolston,0.897916235474,-6.25830881128,-10.1629023422,cat 3,category 9,Woolston
52.1957523895,-2.20770087624,Worcester Shrub Hill,0.34896223259099995,11.8479964809,-103.201500036,cat 3,category 13,Worcester Shrub Hill
51.3587749454,-2.9069074709500002,Worle,0.6730222105320001,10.4148586224,-30.1892244205,cat 1,category 14,Worle
51.2882582762,-0.58314646217,Worplesdon,-1.23523553162,-3.9287314560800004,-15.4094008441,cat 2,category 25,Worplesdon
54.974835321099995,-1.81382801957,Wylam,-0.0537805977671,1.4962293982,69.0681566079,,category 2,Wylam
54.4954770522,-1.35283242049,Yarm,-0.185817560182,-1.64060938345,-135.18029175200002,cat 2,category 11,Yarm
51.3886048254,-2.8312563711400003,Yatton,0.998727714041,3.9212655552199998,84.5131214982,cat 3,category 11,Yatton
52.80950519020001,-2.7362330176099996,Yorton,0.8569890644399999,5.25127599852,-69.6266098047,cat 2,category 9,Yorton