name,lat,lng,metric_1,metric_2,metric_3,metric_4,metric 5
LooLa,51.2491104572,0.422147140054,0.627072167498,0.308339020015,0.958195293614,cat 2,category 13
Zinzizzl,53.4445060124,-2.99581944382,0.0444345923826,0.192648046047,0.553917265543,cat 3,category 12
Blingkee,55.8605983065,-4.28156721247,0.152466006181,0.472439027744,0.955956651746,cat 1,category 5
jakee,51.2759475722,0.576268334356,0.467626852412,0.0177812923559,0.553913265622,cat 4,category 26
Pluryou,51.521738292,0.29048525728,0.353091524227,0.981328162521,0.406718988224,cat 4,category 5
Claxyou,55.9593228842,-4.79224401669,0.327791409619,0.0180922106078,0.367832102803,cat 3,category 22
Glifcloud Labs,53.285568856,-2.94194357589,0.435053688428,0.371038108795,0.317382581864,cat 2,category 6
floly,50.1830880734,-5.43654228643,0.0179734817526,0.595332698437,0.603517475846,cat 4,category 27
blingify,52.7606670081,-0.885582140271,0.064596422641,0.554089533674,0.769927689876,cat 2,category 14
yeddza,51.8521219958,0.577832708293,0.782071593661,0.124574101067,0.244488360059,cat 4,category 24
daygo,52.4474933824,-2.13553875046,0.720145045601,0.368018708904,0.885917237501,cat 1,category 8
Yasauce,53.490777573,-2.09348222707,0.106411193592,0.448619541318,0.239376469696,cat 2,category 16
claxdoodle,51.1120497532,-2.44500607936,0.641723656252,0.0487035228728,0.539364514133,cat 2,category 29
ScroScro,,,0.964559217566,0.463133908009,0.187544593767,cat 2,category 19
Doify Collective,53.4097214186,-2.99011732557,0.657138259528,0.339003110614,0.87741142078,cat 2,category 11
Yeddify,54.9679421908,-2.46231645892,0.889861013133,0.660752959096,0.342019822477,cat 2,category 8
JaYou,50.728627187,-3.52746614191,0.631021298466,0.244286573822,0.860098695957,cat 2,category 23
Blingdiant,53.7956627697,-1.55090953253,0.84410312563,0.970188045531,0.205900526201,cat 2,category 9
Jibnet Designs,51.4762969905,-3.20197338166,0.508664040787,0.307884011751,0.582021014174,cat 3,category 3
Niify Labs,52.6728407189,-0.734005149747,0.599663229867,0.0780595303812,0.502857020547,cat 2,category 28
Plurton,53.8527693519,-1.21600970524,0.100913048657,0.0253593568462,0.321664363519,cat 1,category 11
Floon Collective,53.1448297214,-3.80433961579,0.378791121485,0.959907434565,0.941603499507,cat 3,category 9
Ibigeo,52.305965788,-0.675045721623,0.487895925656,0.845624030151,0.489943837258,cat 4,category 5
skozee,51.405257202,-0.676221098037,0.422064899125,0.692648641249,0.00282572234132,cat 1,category 6
Tubdoodle Labs,52.5446659871,-4.05754270427,0.899120578302,0.643309156031,0.711810465752,cat 1,category 19
zinla,53.4452812046,-2.03948248071,0.0226731908641,0.539092606472,0.29131893663,cat 3,category 4
Filster Systems,54.3556013907,-2.76761168876,0.416766940774,0.218626002115,0.453891953341,cat 1,category 29
Yala,56.4027252028,-5.04049192951,0.553099155085,0.905007042218,0.141743067389,cat 2,category 8
protra,53.3205071778,-3.83013662577,0.217664557756,0.599229479663,0.224642638595,cat 2,category 18
KabSauce,51.7753069007,0.0356348619937,0.864252668032,0.145318102983,0.60315086226,cat 2,category 4
openton,57.3311188454,-5.66966132795,0.640087573842,0.539374854834,0.626349826378,cat 3,category 5
zimnico,50.8357038648,-0.204497688065,0.518957301966,0.136328553668,0.563429149102,cat 2,category 17
Zuera,53.6752997517,-1.6559591216,0.294647631366,0.741482974285,0.717995006751,cat 4,category 2
blingla,54.8295625993,-3.1645889978,0.971654029092,0.408963619069,0.302839010257,cat 3,category 4
kabbee,51.2040097493,1.38392724478,0.00689148489561,0.832045586117,0.0419096969323,cat 1,category 16
Jasense,52.7893646351,-0.158195221285,0.272124534597,0.486690881114,0.234507540736,cat 4,category 18
yaga,51.672929802,-4.70727364956,0.557781222611,0.360553425412,0.190884149718,cat 3,category 11
Yeddcloud Designs,52.9207871984,-4.05622137109,0.442138533824,0.850325053436,0.398239962315,cat 4,category 28
blaodiant,52.2364872471,0.404811324569,0.100406676914,0.665711977813,0.0131488045501,cat 3,category 20
RaBa,51.5718960403,-3.21791334432,0.261784699288,0.786114236114,0.0859143107778,cat 4,category 25
Blaogo Collective,51.866700016,-0.186103919399,0.181956958132,0.0648560375568,0.893779542878,cat 3,category 20
Rasense,56.4678291095,-2.87365458638,0.646412139807,0.773643794476,0.906018251961,cat 3,category 24
claxnit,52.6661644091,-2.37028793385,0.165107419187,0.60698925399,0.798930887233,cat 4,category 9
Cloudmee Collective,55.7886405349,-4.6159355575,0.0125642465076,0.475123960065,0.523685792414,cat 2,category 24
Xosy Media,51.2761162482,0.514763072446,0.585360152802,0.0272431229668,0.610385020848,cat 1,category 7
Scromo,51.0824874734,1.1672558754,0.686624994338,0.924167132261,0.420125106865,cat 1,category 21
tubba,51.3869864112,-0.510037820282,0.331600228175,0.254648808305,0.975596994959,cat 1,category 9
iyou,52.2898620641,-1.61557300806,0.161000409354,0.294838988538,0.811724989044,cat 3,category 29
Zimyou,53.0879573301,-2.43377329515,0.264134880212,0.566971741913,0.97585501332,cat 3,category 24
Jambio,51.5994975409,-3.34188382119,0.387413951433,0.772585291392,0.478294105264,cat 3,category 23
Glifstar Systems,51.6402805015,-0.473931651947,0.292112972557,0.122775551667,0.53811216435,cat 4,category 15
Docloud,50.9587945625,-0.516440828733,0.459570364433,0.87510428441,0.219699114045,cat 2,category 6
DayCkr,53.7356361307,-2.50173745682,0.801531349663,0.669801840698,0.446382797683,cat 4,category 7
Blingbee,55.9522130162,-3.18341769772,0.50689577565,0.404549290091,0.554456942822,cat 1,category 2
Dotnit Labs,53.5002501786,-2.64744558789,0.398442999737,0.961742518024,0.738888841595,cat 3,category 9
Dotzee Media,51.2853451935,-0.902293291936,0.117023984359,0.662250285176,0.523462217629,cat 4,category 4
TruTrix,56.7127968979,-2.47207415927,0.494219871381,0.230424823824,0.234781984508,cat 3,category 12
Daymonkey Media,53.3604962145,-2.08372977854,0.885034003053,0.321325340375,0.988473135196,cat 4,category 14
XoEra,53.0402948506,-0.94483222378,0.53430112641,0.449463430087,0.423268670161,cat 2,category 20
twiba,52.3823315533,-2.23876765938,0.349618141177,0.556519512995,0.0255947572293,cat 1,category 19
Twidoodle Media,50.1706211789,-5.11160146418,0.824790779519,0.409227251802,0.728671090606,cat 2,category 18
Blingckr,53.5499704253,-2.17073761604,0.627249646205,0.472481035722,0.0691775018203,cat 2,category 28
OpenKee,53.7726649435,-0.923748690138,0.458983713736,0.010115972942,0.600638516918,cat 2,category 8
Yeddba Media,53.4619387026,-1.46617478942,0.00670047936173,0.247516671414,0.80546563458,cat 1,category 28
Quirbdoodle,51.6593894435,-4.79004753188,0.371525345296,0.855434748735,0.88581606633,cat 2,category 5
jamckr,55.6333298059,-4.78282105029,0.199832998615,0.203437123848,0.102337644224,cat 3,category 13
Youfish,51.389564494,0.508761946254,0.711246158581,0.75437139754,0.21012322076,cat 2,category 25
yoba,54.2815097788,-2.3631298861,0.755286828129,0.01070318006,0.542456888123,cat 1,category 14
yeddmix,51.6468643857,-3.48543403589,0.280734207462,0.0402398569833,0.107923475886,cat 1,category 23
Twidiant Designs,53.3204501341,-2.13454105193,0.0256204731203,0.289089302321,0.386508212547,cat 2,category 8
Bosy,55.6348892764,-4.74956113738,0.944290053555,0.983323056022,0.178372486538,cat 3,category 29
YaZing,53.0929632891,-3.80089880611,0.430190184946,0.453312117158,0.703381603157,cat 2,category 21
Adba Systems,51.4336943536,-3.17344937545,0.161176732722,0.0396034728507,0.488351651872,cat 1,category 19
Razizzl,51.7332870205,-4.31338319112,0.566160823224,0.310391979706,0.273045980741,cat 2,category 3
xoly,52.6376289792,-2.26756810074,0.108450951246,0.0894872966926,0.719097824052,cat 3,category 11
Zimstar,53.6532925315,-0.321623997886,0.359472244528,0.276646246679,0.0487406474318,cat 2,category 15
Dotkee Media,56.4935116521,-2.7446367748,0.337004371021,0.54312510271,0.680230149247,cat 2,category 17
opengeo,53.5063224377,-2.93228210104,0.970777685531,0.421421351164,0.299373118497,cat 1,category 23
Kosqa,53.3635313451,-1.81663238611,0.900560055368,0.132869254544,0.23809217645,cat 2,category 21
yayou,53.6218219467,-3.02622142274,0.474010975139,0.978180190721,0.395673981556,cat 2,category 6
kabsy,51.7264108356,-0.34035744861,0.181162692895,0.302820364615,0.788145336362,cat 3,category 15
Kossauce Labs,,,0.0395045660041,0.381601177461,0.0429293144513,cat 2,category 27
projam,53.240042286,-2.60133079226,0.539811995145,0.689950158066,0.83357052791,cat 4,category 18
zinhop,53.5637474796,-0.08455343862,0.687498108933,0.123838577592,0.992210934284,cat 2,category 26
Jageo Systems,53.0379853193,-1.19574246361,0.635869560948,0.0366284407773,0.0240509831553,cat 3,category 9
TwiGeo,52.9063117724,-1.23304928595,0.104431312587,0.640728794851,0.576730893768,cat 4,category 7
Zinba Designs,56.7024928134,-3.73605990572,0.818079685067,0.789833238704,0.570532447368,cat 3,category 13
claxla,51.5413246171,-2.43115868791,0.303299220075,0.530951864218,0.688619145358,cat 4,category 8
yoster,57.561436749,-4.44173857606,0.0111535168571,0.495177578431,0.622988955302,cat 1,category 11
VertSy,53.7423488087,-0.345523274213,0.554894157095,0.979012845892,0.671261865143,cat 1,category 23
Koschi Designs,51.2650905977,0.627699885764,0.817643486822,0.405120578163,0.607105219466,cat 4,category 28
Blingdoodle Designs,51.3485696931,-2.94102401486,0.585848107751,0.424023900159,0.774985913365,cat 1,category 25
Zimzing Labs,52.4370867326,-1.84506185273,0.545495580778,0.641470578694,0.0346522204728,cat 3,category 13
ProLa,53.5152913562,-2.336680494,0.62459846582,0.399698091953,0.996258974979,cat 2,category 23
Twibo,53.5887858855,-1.70583416276,0.314967715945,0.583098611376,0.506887193979,cat 3,category 19
Jamdiant,53.1172666117,-3.03679890712,0.674340642882,0.525115345771,0.0476681097271,cat 2,category 3
glifjing,51.385610793,1.37187304371,0.0100641471527,0.567582309375,0.016216327446,cat 1,category 12
JamSter,53.9784134354,-2.10669511013,0.717957817537,0.637656607667,0.013376036228,cat 1,category 17
youly,56.8903882907,-4.92089708686,0.231359412506,0.114820285954,0.0973890513816,cat 2,category 10
IniIfy,53.5947894569,-1.28538401358,0.875913242758,0.385634584469,0.406052851629,cat 4,category 1
vertzing,53.4173853222,-2.76708207088,0.0603430477005,0.0868689157115,0.820071809638,cat 3,category 23
Truza Labs,53.8001365932,-3.04901921652,0.687362930071,0.275631411909,0.277149268067,cat 3,category 14
Quirbcloud Systems,57.9243877551,-4.40062789493,0.986518661893,0.209949062154,0.228083814347,cat 4,category 9
Adchi Labs,53.2059043469,-1.20922201002,0.969341026216,0.825361810624,0.753635356095,cat 3,category 19
Bomo,52.5717809364,-1.20259946396,0.423914944448,0.81050072956,0.396314200306,cat 1,category 13
Floera Systems,53.3249349762,-1.51502790897,0.675350170494,0.189629805099,0.750727728231,cat 1,category 25
GlifScro,55.9197112331,-3.26489941896,0.454804727978,0.0830827712592,0.588303827847,cat 3,category 6
Nion Media,51.2791725673,-0.434597257916,0.891664641938,0.23064942608,0.227732454186,cat 4,category 1
Vertchi,52.8640244607,-4.10664712417,0.254600652126,0.643630546475,0.976443644349,cat 2,category 27
Scroton Systems,51.4495057721,-2.58052838362,0.646605258555,0.618236856404,0.539656392937,cat 2,category 14
DoZing,57.7769953391,-3.99594098162,0.18476826434,0.882461029053,0.811914336632,cat 1,category 3
Adbo Collective,50.7178615325,-1.98287894334,0.628089480404,0.313883762074,0.152720747866,cat 1,category 29
mydoodle,51.2688152766,0.515511294637,0.235821620814,0.115488834376,0.384483371873,cat 2,category 0
DotStar,50.3553248405,-4.70467525733,0.873786531937,0.588976802647,0.953710259856,cat 3,category 2
Zinzizzl Labs,55.8533488547,-3.57083251358,0.885963104403,0.390838458223,0.173444450301,cat 4,category 8
RaTrix,53.1855781826,-3.82348651774,0.421839977098,0.492110723664,0.637711503933,cat 3,category 17
Twibee,53.371765947,-3.00885138843,0.365406309648,0.185651996162,0.0705668897044,cat 3,category 17
Opengeo Media,53.0062370377,-0.998271068495,0.724007420936,0.328248994159,0.366148453789,cat 4,category 21
YaNit,54.5602937739,-1.29992538369,0.376434756951,0.153129631692,0.936948131012,cat 4,category 21
smugsense,51.3289648618,-0.212857999895,0.0330883792625,0.334485751923,0.213862688894,cat 3,category 0
Daydiant Labs,55.884253733,-4.35219448108,0.207893384942,0.503103228086,0.0107178249518,cat 2,category 9
Youtrix,53.2610359112,-1.915186334,0.283121166695,0.0724630290955,0.598342901561,cat 3,category 10
Claxmonkey Designs,50.9137832305,0.49652769079,0.893783091758,0.348319671149,0.838906602917,cat 1,category 7
Kosera,51.3006174434,1.12192341331,0.930384058822,0.238421431124,0.0275097118552,cat 2,category 6
Glifnit,53.3288690644,-2.66586784981,0.288064730473,0.248321317165,0.722566318837,cat 3,category 12
Claxdoodle Media,55.8556872449,-4.1294051521,0.538883481783,0.404650554985,0.0817296415858,cat 1,category 16
ZuKee,55.9988654794,-2.51591904625,0.795271046018,0.456085511568,0.801153694297,cat 2,category 29
koszee,50.6491717689,-2.4655104918,0.255732649151,0.291395566778,0.100094259228,cat 1,category 9
Openbo Systems,51.5079827832,-3.22903233035,0.294575577049,0.770995434907,0.668102266805,cat 3,category 4
Xoba,50.8308803456,-3.77519111457,0.730034683445,0.773736646125,0.671115557157,cat 2,category 27
Zuscro,51.3936821455,-1.24063429689,0.197249205837,0.925711087071,0.640922532447,cat 4,category 23
looon,53.5508549172,-2.38823477263,0.0882111442617,0.384462103634,0.409907411564,cat 4,category 16
Xozing,52.0555330288,-0.531874451609,0.645971932502,0.709779965859,0.304606955483,cat 4,category 20
Openify,51.3587749454,-2.90690747095,0.946775885427,0.526542456102,0.216012765121,cat 4,category 26
dojam,57.9198114062,-4.40505045878,0.181276814274,0.378742487935,0.515540438746,cat 4,category 23
Filtra,51.8510750616,1.06375636828,0.552294498015,0.572518277694,0.409427989131,cat 3,category 11
Openzee Labs,50.9253598984,-0.146478359279,0.22202043578,0.337882538687,0.542917267572,cat 3,category 21
DoBo,50.9323155932,-1.29413339999,0.0795717390851,0.747687591785,0.813440210992,cat 2,category 13
Loofish,50.8869927304,-3.87336455615,0.0729463293113,0.841116805488,0.304106222526,cat 2,category 27
MyDoo,51.0504166448,-0.363708439478,0.976949045198,0.667810777152,0.820706159365,cat 4,category 7
Looqa,57.3374113988,-2.61628014332,0.168150547315,0.757785254378,0.0727897509747,cat 4,category 8
Probio,50.8838616556,-1.30424780186,0.700213012716,0.899692170683,0.489727334805,cat 2,category 15
yousense,50.8538280321,-0.995703243553,0.758062100716,0.145935638138,0.0549085947396,cat 4,category 5
Cloudspace,52.9032092234,-4.338069919,0.78324970696,0.23818172333,0.525774878721,cat 1,category 25
Plurspace,53.3578659781,-2.04383345401,0.0318680032764,0.692421017619,0.361754266794,cat 1,category 28
remzee,55.8905288013,-4.13883011224,0.397609654462,0.830798940687,0.333441290515,cat 2,category 19
Plurtra Designs,51.3664038132,-0.818549044883,0.337934712511,0.0597559053356,0.763696897947,cat 1,category 0
Youcloud,53.5700651931,-0.0776983083538,0.107970283527,0.173501157588,0.827019559127,cat 1,category 10
Ramonkey Systems,51.5611576564,0.506726613691,0.353471420436,0.104056178497,0.618900011417,cat 2,category 19
YeddStar,52.8095051902,-2.73623301761,0.803158964946,0.890399580546,0.0582249382665,cat 4,category 23
Quirbzizzl Systems,51.715956569,-0.845217877037,0.984612261356,0.153878180309,0.836658615737,cat 2,category 19
YouBio,56.0681988472,-3.45394261202,0.662762617906,0.0867641666143,0.415616240038,cat 2,category 7
MyYou,52.5163038847,-3.43235663538,0.497361464524,0.794725443509,0.515090610246,cat 3,category 7
Yofish Designs,51.6470879858,-3.22455289054,0.671393437591,0.516700519508,0.244783791185,cat 3,category 15
Xobo,51.2279867055,1.20990500983,0.0812879351321,0.112827408,0.638771028217,cat 3,category 0
skosense,57.2049302232,-2.19198752682,0.2809320868,0.681988345114,0.906525018162,cat 1,category 3
BlaoJam,52.2913075654,-1.78501820651,0.507248499345,0.935388377885,0.228623504509,cat 2,category 11
Dayga,51.3368141228,-0.744516753063,0.193826621103,0.327610032205,0.91664798596,cat 3,category 29
Quirbcloud,54.9657869918,-1.71258071731,0.130165186191,0.871301304232,0.615048494145,cat 4,category 18
lively,51.7366190442,-0.208841812793,0.899032825704,0.0192816269008,0.410339114809,cat 3,category 25
Koschi Labs,52.479400864,-1.90248399007,0.775877158957,0.50917153161,0.612303461586,cat 4,category 19
Quirbzing,51.1513624468,-0.966669384962,0.0162484328534,0.368138438086,0.30668308887,cat 1,category 1
Daysy Collective,55.970183468,-4.58715095018,0.0442749872081,0.409517401558,0.561812451373,cat 2,category 25
Zinster,53.80512808,-1.44967947403,0.52966141985,0.169158941771,0.211960993631,cat 3,category 6
Dotnet,53.8919766081,-1.73497978136,0.336433120412,0.949559004241,0.915312278945,cat 4,category 28
blingza,52.0514375729,-3.74791653118,0.324606115167,0.0770875587636,0.766061509763,cat 1,category 20
nidoo,52.3609967724,-1.99356785916,0.396622990209,0.445038106406,0.153327959731,cat 2,category 1
prockr,51.0039183074,-0.107358870339,0.0524681712801,0.42068247378,0.581136084983,cat 4,category 17
Kabster,55.8179580366,-4.22734981477,0.780618607692,0.313456040311,0.400362769395,cat 1,category 16
Youstar Collective,,,0.421915628624,0.0875374868229,0.0472133207991,cat 2,category 2
Plurnet Systems,56.4980571334,-2.72036067846,0.839765077998,0.515373231856,0.633756012443,cat 4,category 23
TruLy,54.5781799194,-1.23348142541,0.795653772809,0.102486782167,0.969204516707,cat 4,category 25
Zuckr Systems,51.485052566,-1.09092372673,0.576578531426,0.289423731164,0.920491640542,cat 4,category 27
LiveTra,53.1641515857,-1.20273502385,0.573611708738,0.789984022725,0.192197063176,cat 1,category 15
SmugSauce,53.6894691587,-0.440962970184,0.693485440716,0.155188386851,0.323731823171,cat 1,category 6
nila,53.5230508673,-2.17032752147,0.426058151606,0.291034783411,0.69529630153,cat 2,category 17
RaBo,54.9661846061,-1.86361483519,0.516340392656,0.703338991971,0.620568765327,cat 2,category 27
Scromee,50.8628428417,-0.0871430692331,0.0569271012436,0.84409154778,0.348311530525,cat 1,category 5
ZuSense,53.5955800404,-1.30516406533,0.0124394509806,0.931168083741,0.56393813314,cat 2,category 18
Twiqa,51.5889868192,0.599937091054,0.0902167303524,0.836411173485,0.111220413854,cat 4,category 26
plurjam,50.4074711388,-4.66682676174,0.855544952618,0.130630785825,0.0576497670266,cat 4,category 0
Trubee Labs,54.5831385686,-0.974527583874,0.910391592875,0.620058078889,0.36694415154,cat 4,category 29
Jaon Media,51.3616671757,-0.34861925406,0.986027837416,0.06483922145,0.875135076031,cat 1,category 22
Scrobo,50.7801477455,0.0809130434001,0.0755457699193,0.0488954720402,0.0439771558787,cat 4,category 10
TubZing,,,0.032406113855,0.358092167365,0.235655545531,cat 1,category 13
Ninico,50.7276780651,-1.86606027167,0.802073823666,0.0564583049276,0.212762329376,cat 4,category 1
loobox,51.797410859,-0.0920090499798,0.944022269101,0.728177813961,0.634014506249,cat 1,category 2
Yomonkey Collective,52.4623526767,0.315600966797,0.369271964901,0.148697665713,0.493384809807,cat 1,category 12
Zuba,54.4596752944,-0.824044561366,0.858565229658,0.229605944887,0.640032797947,cat 2,category 7
Xozee,53.8990403222,-1.94175325949,0.973243670771,0.898459456431,0.160694311544,cat 2,category 27
Yamo Collective,51.7443966377,-2.21865741125,0.0507353024806,0.90532878199,0.925891161537,cat 4,category 17
Truhop,50.8207191897,0.245285261544,0.0929201176185,0.57638349163,0.525633741504,cat 3,category 27
jibkee,50.7976665969,-1.08864258346,0.361154456063,0.605859056117,0.764902846337,cat 4,category 0
openster,50.8425824007,-0.844537738931,0.987885902067,0.576744340932,0.165893695426,cat 3,category 10
adsauce,51.4070820286,-0.723183671915,0.592670709994,0.368986329768,0.31689862418,cat 1,category 13
Filbo,53.8053512686,-1.63857276956,0.0320090394011,0.518679073948,0.814384002014,cat 2,category 6
Adckr Designs,50.7860552422,-3.28454947993,0.509274426701,0.198811273319,0.592383027384,cat 3,category 10
daygeo,51.7004588138,-0.025758165185,0.531377356882,0.527143543458,0.711680332901,cat 3,category 7
daytrix,50.796165188,0.28008208389,0.4347534651,0.327376858348,0.498208258453,cat 3,category 4
Zinsauce,51.5099987462,-0.882061519865,0.545189622947,0.791953569711,0.128977092302,cat 4,category 1
XoSauce,51.3117135605,0.198431716826,0.499806029385,0.284771010383,0.717368299457,cat 3,category 22
Jamba Collective,52.0210789702,-1.28077461679,0.0694532988834,0.530639760362,0.708402351379,cat 3,category 8
QuirbYou,53.7644767365,-2.94337844202,0.946249827387,0.881715023109,0.98563809248,cat 4,category 27
GlifYou,50.8256856865,0.389156300696,0.542930311607,0.209170332596,0.619674750252,cat 4,category 27
claxify,53.8122554198,-1.57837274793,0.658466040256,0.857210274355,0.33379090922,cat 1,category 26
yomee,53.5172549395,-1.41631455473,0.933360883336,0.2438616949,0.869416409732,cat 2,category 13
Jafish,53.5855923389,-0.655228836421,0.744593568664,0.381754755164,0.660402257702,cat 4,category 26
Kabgo,51.8139282962,-0.351796759204,0.632078203589,0.929956989165,0.0925347281986,cat 1,category 18
Quirbba Designs,51.2539387407,-1.26027633933,0.679401076333,0.333222472736,0.261849993752,cat 2,category 15
YaZee,51.294358051,-0.210903162085,0.761022403341,0.401456232557,0.972574372792,cat 1,category 7
Jibla,51.511822542,-0.592074175442,0.471506615084,0.905340024998,0.169851426387,cat 3,category 23
LooJing,54.1187024639,-3.22695304694,0.0263433287265,0.562154334351,0.603578595894,cat 2,category 10
Jaqa,53.2959968161,-2.72296976227,0.366471695552,0.64782561683,0.41423663694,cat 1,category 13
Mydiant Collective,52.471246354,-2.05648549271,0.0921574351118,0.951011646311,0.37776429207,cat 2,category 0
prochi,52.1140240645,0.0313860232483,0.527201975175,0.274887293909,0.857274934675,cat 4,category 19
Jamtra Media,50.9894675941,0.131157531765,0.0643316341348,0.180941897753,0.711404066618,cat 2,category 19
Dotify,56.0768380384,-4.8262984664,0.343826617416,0.445806885918,0.389942603302,cat 4,category 4
Jibcloud Designs,52.6603319681,-3.13817082779,0.155697935404,0.494737430366,0.224278642719,cat 4,category 4
mygeo,51.329556293,1.31573673263,0.904653494808,0.353027480841,0.228743861269,cat 1,category 24
IniZa,55.937268566,-4.71530830549,0.21323978535,0.881768030032,0.656767948431,cat 1,category 4
IniDoodle,55.8545977915,-4.35671312013,0.41154525412,0.778206425182,0.0879465403659,cat 1,category 2
nihop,52.9435536873,-0.792342185142,0.642603896602,0.977554192039,0.36152629191,cat 2,category 0
blaobee,52.4878238438,-1.87330651156,0.157305829825,0.202283424499,0.433174231659,cat 3,category 15
NiLa,52.422307199,-2.14729878255,0.641123254015,0.822309670617,0.360438124554,cat 2,category 27
Filtrix Collective,50.9535622452,-0.127274174416,0.528403752298,0.861822579472,0.0772049373272,cat 2,category 13
TruScro,51.537583473,0.761483674013,0.812684801935,0.941209217427,0.393186342059,cat 1,category 6
Youqa Media,55.8400559412,-4.26974184825,0.227900046718,0.596234301731,0.824225415409,cat 3,category 10
LooSy,53.1382722625,-1.55921109585,0.0621608739563,0.284295639485,0.0413150728373,cat 1,category 23
Scromo Collective,51.3182004961,-0.305407096615,0.361292515235,0.708245917635,0.298803084721,cat 3,category 26
Loospace,52.2767316091,-1.69751496788,0.402739235946,0.271889318144,0.120132317334,cat 3,category 7
mygeo,55.9415367919,-3.98271130248,0.948845306903,0.0151750559585,0.267830483986,cat 1,category 19
KabNet,52.3280306388,-0.192900348249,0.128850069873,0.466775268805,0.0597891574551,cat 1,category 20
adly,52.6473857571,-0.48050017773,0.407498281681,0.810650464525,0.398849043613,cat 3,category 25
Prosense Systems,52.8662211548,1.349359441,0.716346450817,0.974500129361,0.592645511269,cat 4,category 16
Daymo Labs,53.222624852,-4.13424912757,0.106174524855,0.553462689175,0.378591608917,cat 1,category 11
Twiga Designs,51.628317086,-0.386200315608,0.421904595591,0.430693893446,0.0520620500463,cat 2,category 14
jamsense,52.1690015394,-3.42738789279,0.109180015873,0.951180353778,0.284470346849,cat 2,category 9
remnet,51.7208083726,-0.203965105148,0.963203302983,0.0864799325387,0.238206905346,cat 3,category 29
PlurMee,51.7458299241,-3.27813653503,0.45292237837,0.283788762899,0.0422629927809,cat 4,category 22
IMo,51.697507737,-3.01480488215,0.94597158857,0.108552717739,0.383061384217,cat 3,category 25
cloudgeo,55.178081571,-1.64377366324,0.626952994252,0.409224291117,0.366987591066,cat 3,category 28
Youmo Labs,50.8435627384,-0.154835365488,0.183452396342,0.907761883952,0.519549730042,cat 4,category 5
smugfish,55.8514029663,-4.07509139799,0.403694145523,0.739205449686,0.99424260159,cat 2,category 28
Quirbzizzl,52.749783439,-1.14483418478,0.636904358349,0.392573598388,0.14973490218,cat 3,category 7
zimla,50.1704555977,-5.44235851475,0.323817623949,0.489082525073,0.668131803094,cat 2,category 3
Remdiant,52.0361709052,0.734956649649,0.99996706709,0.0644272123602,0.0895956959425,cat 1,category 15
Dotscro Labs,50.7123590503,-2.4437581048,0.317679110454,0.374502646883,0.479394248017,cat 3,category 19
Dottrix Media,52.5145649661,1.02231942089,0.625083872446,0.50504835124,0.861140860779,cat 2,category 22
Clouddoo,50.6149074801,-2.45450072681,0.820718208568,0.706653434102,0.664489411535,cat 2,category 15
ZimGeo,52.3252590353,-1.81992163505,0.0419075867965,0.952048546272,0.397257846957,cat 4,category 7
kabon,51.8007486579,-0.623990904646,0.014243578065,0.964579242031,0.0131978247027,cat 4,category 17
TubNit,55.9233983178,-4.45332959603,0.470628124082,0.811485739926,0.290957824554,cat 1,category 11
KabJam,52.1921780154,-1.71593588819,0.131069591984,0.257859242086,0.948777038485,cat 2,category 4
cloudtrix,55.8446500244,-4.21993130716,0.298113229577,0.467042326159,0.244267870363,cat 3,category 24
NiZa,53.6515899017,-2.62699303988,0.26810681071,0.986924672957,0.713096793878,cat 2,category 21
YoEra,50.952901997,0.733645506599,0.649927254847,0.528912623733,0.922915683787,cat 3,category 20
liveton,51.8657374252,-2.23812549972,0.0193748416209,0.848520844641,0.39713115136,cat 2,category 27
XoSauce,50.1769931527,-5.44184820571,0.937854662321,0.361732296145,0.969237776785,cat 4,category 27
scrogeo,54.5687157845,-1.31903771024,0.0194965973153,0.68290250077,0.293556563071,cat 4,category 8
LiveDiant,51.4401011965,-3.18016013366,0.866138442412,0.482733286529,0.340190107904,cat 2,category 29
yeddster,52.015908283,-4.99074300546,0.967409768094,0.496943270833,0.0829949173198,cat 4,category 2
Mygo Labs,50.7871289452,-0.674246910946,0.401917594162,0.354277239304,0.875878812339,cat 1,category 14
Glifgeo,53.7204209174,-1.85448582909,0.34615579311,0.806015150386,0.0162746948565,cat 2,category 19
Dayzizzl Media,51.2034492506,0.403430008527,0.520278468179,0.720505928526,0.755009805947,cat 2,category 0
Jamton Collective,51.3916206286,-3.27168853376,0.48356570378,0.551424550881,0.512227328239,cat 2,category 14
Prodiant,51.7458638363,-0.0120452535807,0.0388087200079,0.72874339557,0.2721406595,cat 3,category 16
Adsense Designs,54.4669106819,-0.945882831725,0.545970579876,0.693679026159,0.440084502306,cat 2,category 26
Inibio Designs,53.4651207914,-2.08657213665,0.225063032205,0.506515867338,0.9696932142,cat 1,category 20
Livetra,57.6429130089,-3.31163136,0.499885406594,0.42085767994,0.338995401112,cat 2,category 3
Dotcloud,51.7788758728,-3.99742937344,0.766192729851,0.818516778384,0.431351450181,cat 3,category 0
CloudKee,51.1852303356,0.930204995189,0.264407486018,0.672811348434,0.932886316911,cat 4,category 17
Scrojing,50.7834347987,-3.64685315131,0.0902120592581,0.702307679002,0.698477382563,cat 2,category 19
filon,50.8988775272,-1.37555111336,0.753349626281,0.149338048447,0.603847229279,cat 2,category 4
BlingBa,51.1553790847,-0.161943670595,0.346029737824,0.502643326359,0.226585500593,cat 1,category 26
TubMo,51.8026668419,-4.9587547992,0.825356449817,0.547647259179,0.645058764147,cat 1,category 16
Twinit,56.5563407679,-3.57804372718,0.990284628817,0.711986386692,0.152948513184,cat 3,category 17
Dobox,55.8197350968,-4.2506786039,0.919749245343,0.551353475946,0.417480707359,cat 4,category 16
Yacloud,51.3833207677,0.376913192251,0.635721182393,0.962901028071,0.73409956776,cat 1,category 2
filnit,51.6857255759,-0.3184823603,0.240184465158,0.277653258098,0.174784831101,cat 4,category 27
inizing,51.9181569118,-1.29964955868,0.525219342803,0.721939456525,0.614616807218,cat 4,category 20
DoBox,53.5968341947,-2.41388962957,0.207366825033,0.502035175407,0.475374459388,cat 3,category 7
QuirbBa,51.8377397487,1.24070661626,0.441606980253,0.755519937983,0.954135369608,cat 2,category 19
Zimcloud,51.2923088115,-0.235867161431,0.581348519448,0.112788624513,0.0252609683961,cat 4,category 5
QuirbZizzl,52.4811356888,-1.78600943048,0.576656108014,0.0976060651386,0.644950371111,cat 4,category 8
AdDoo,53.2811000003,-4.56350780777,0.784197047004,0.00235814433239,0.772827432069,cat 3,category 5
XoDiant,55.7053477412,-4.71184698123,0.799861989437,0.984716047817,0.646050279369,cat 1,category 0
livedoo,53.4208216296,-2.21678986288,0.0154108884374,0.521233440372,0.0973071734426,cat 4,category 3
ProJam,55.9410360261,-4.31528137649,0.947703466245,0.679411045017,0.36323572464,cat 3,category 24
Adsense,53.474719882,-2.95592187685,0.370645720704,0.461747456058,0.792376932998,cat 1,category 6
blaobee,57.286266828,-2.37322776286,0.655581402087,0.101257589016,0.409063670166,cat 3,category 18
tubton,51.8998790997,0.894652595973,0.0551260376768,0.308791523704,0.74274744042,cat 3,category 29
blaobee,53.767752858,-1.5879210706,0.891448646578,0.363956128574,0.358342951839,cat 4,category 19
XoDoo,50.8488099362,-1.12649734459,0.0711978221358,0.42224223151,0.555660903235,cat 4,category 12
Janico Designs,58.1176442241,-3.66005522774,0.649943026086,0.627292353801,0.494369413291,cat 1,category 19
Jibify Media,51.3637500574,-0.247488267321,0.89101555316,0.0623430968342,0.703459245617,cat 4,category 28
OpenTra,51.1892563972,1.22975553907,0.325176618013,0.365443445843,0.779232177426,cat 3,category 12
Jamzee,56.0424666407,-3.36644953859,0.836160307608,0.268800146367,0.68325604504,cat 1,category 21
Dofish Labs,51.6332886811,0.812097362542,0.847665949406,0.0528325710258,0.528416223534,cat 4,category 12
iify,51.2645500755,-2.20296924348,0.317657477759,0.77391019,0.902479909398,cat 4,category 9
skomonkey,51.9466441415,1.25270533986,0.961225971828,0.910083976647,0.294289717216,cat 1,category 17
koszizzl,53.393460773,-3.02101905634,0.101100896215,0.776637566784,0.356021138407,cat 2,category 20
domee,53.9159957786,-2.0110014736,0.536219724965,0.898851567987,0.557955853623,cat 4,category 9
Jasy Systems,55.8421876225,-4.36410829141,0.0458511736889,0.732242550053,0.915582763311,cat 3,category 7
livesy,55.7395832649,-4.67550526913,0.00175759237129,0.397727109825,0.0131537289991,cat 1,category 5
Youbee Collective,54.4361703375,-0.726274329357,0.708342806955,0.31950145273,0.316853518629,cat 4,category 28
YoGo,55.8544829564,-4.04681604043,0.486185216552,0.973480425082,0.429821704462,cat 2,category 11
flosauce,58.0016097729,-4.40097422632,0.692443915535,0.425283024277,0.210065539179,cat 3,category 14
Inistar Systems,53.2679759003,-2.46565617786,0.0733984284217,0.10732224385,0.0211695659651,cat 1,category 9
LiveDoo,50.1869816715,-5.41741552887,0.86738202173,0.977125461406,0.822200315018,cat 3,category 0
Raspace,53.1397452414,-3.79575403184,0.32620514508,0.280943908728,0.853003192767,cat 1,category 28
Zujing,52.3919550729,0.268775546496,0.0481629846833,0.84529344925,0.314840952811,cat 1,category 2
blingnit,52.4691922154,1.70637214279,0.199286660434,0.234838655062,0.673363863019,cat 4,category 14
cloudgeo,51.7865915746,-0.783466170592,0.104991824353,0.501060343603,0.452531271897,cat 3,category 25
loonit,55.9145596574,-3.28513116425,0.618928171186,0.500389587483,0.0185176007813,cat 2,category 15
Koston Systems,51.5176044676,-3.18086561987,0.588290835169,0.683324363088,0.631875132828,cat 4,category 14
Quirbyou Designs,51.1926522529,0.266253774783,0.727211505244,0.118821183695,0.176208531293,cat 2,category 21
jammo,55.8118941199,-4.34559131805,0.962369227967,0.264135626872,0.674248022947,cat 3,category 15
Dotcloud,53.5422098345,-2.90598292325,0.43891240357,0.350303898722,0.9505254094,cat 1,category 28
Rackr,55.8345457676,-4.15899025689,0.252214006006,0.350610944759,0.430854393012,cat 4,category 1
Smuggo Media,57.3198131937,-5.6903857264,0.483904562411,0.0297778295735,0.983429326203,cat 1,category 29
Truify Systems,51.3643151054,-0.689755109555,0.331834132262,0.038956279302,0.346525610153,cat 2,category 20
MySauce,51.7507482502,-0.808621758697,0.0611912573471,0.197224430394,0.422080679393,cat 4,category 21
Scrosy,50.7886159622,0.0547570361315,0.540531812764,0.59708293767,0.572649540797,cat 3,category 20
cloudjing,51.2374963228,-1.33753280827,0.175244827842,0.0558736206134,0.206737754452,cat 3,category 16
Daybio Systems,56.013710669,-4.73383038561,0.902882762809,0.5805904145,0.304174497858,cat 2,category 23
SkoSense,55.8516098835,-4.44305018545,0.446628059901,0.703092046401,0.968642613382,cat 2,category 16
MyBee,55.0885762469,-1.59890020269,0.480795727245,0.464729748213,0.276517588554,cat 2,category 19
Truba Designs,55.5426232888,-4.65560394044,0.62343606627,0.871875220204,0.0740228963588,cat 2,category 13
twiscro,52.4142067422,-1.78699472213,0.737506386636,0.176058121153,0.345121845211,cat 3,category 13
nitra,52.4698308015,-2.09166616441,0.567990037339,0.988339030055,0.240938879775,cat 2,category 7
RemBio,53.5911141315,-2.56989615997,0.694928579515,0.194561265832,0.936878300909,cat 3,category 21
Kosmo,52.5123122055,-3.3113916947,0.109664036398,0.873309617298,0.984710484657,cat 3,category 20
FloHop,53.4538052958,-2.60826288853,0.286666122545,0.348295825071,0.984915078933,cat 4,category 6
Jibmix Collective,57.6220834271,-4.80966027724,0.583656789503,0.00220961317982,0.87020623219,cat 2,category 20
smugbo,51.7099503182,-3.22784225897,0.232361814224,0.12635071962,0.667596382163,cat 4,category 9
Smugscro Systems,51.2006932669,0.0650961815121,0.0962726001358,0.631463706269,0.358641820835,cat 2,category 22
Ramee Designs,51.8246499607,-0.191131145186,0.305941358654,0.864247987113,0.685934799705,cat 3,category 22
Yeddckr Collective,53.3194606386,-3.48861597888,0.331291209583,0.216939460621,0.696586318039,cat 1,category 9
Blingjam,54.1949468831,-2.90403325001,0.655932447482,0.925120457686,0.395297035544,cat 1,category 4
Remnico,53.7172947533,-0.441298022882,0.379794818868,0.92717748422,0.584606200664,cat 4,category 2
yeddnit,53.6053816326,-2.84076142512,0.336454209545,0.36617076144,0.808316080248,cat 4,category 10
remzee,54.0098618273,-1.46720114435,0.201039054085,0.746133925989,0.0960893954669,cat 3,category 21
Floga,51.9668172337,1.34954250556,0.668110774013,0.180864478754,0.516085245526,cat 1,category 29
DaySauce,51.2846104531,0.479157980248,0.325254299869,0.358444432666,0.519577249327,cat 2,category 19
Zimton,55.8373201676,-4.33426570597,0.572141100926,0.275567391584,0.241314555362,cat 4,category 23
Yeddckr,51.3728069213,-0.484205998237,0.859737172373,0.57224392128,0.851693012985,cat 3,category 9
TwiJam,52.0049502123,-0.695607256976,0.151339252478,0.1480670856,0.497730170999,cat 2,category 3
Twidiant Labs,51.4828910404,-0.579067568206,0.400970889451,0.868645869713,0.363086381086,cat 1,category 21
Blingstar Systems,53.249409029,-3.13074192739,0.469997480045,0.877897751798,0.284853893769,cat 2,category 22
ramix,54.9748059108,-2.3435857239,0.965593180789,0.24440062037,0.290353427387,cat 3,category 20
Claxify Labs,53.2818837036,-1.19904632405,0.58445482983,0.727170148398,0.700340791133,cat 2,category 1
plurdoodle,51.5901400976,-3.00006794148,0.545828089664,0.992677068477,0.475245733779,cat 4,category 0
Domonkey Media,52.4270505185,-1.69869396733,0.133801238554,0.32423396898,0.442316358394,cat 1,category 8
JibScro,53.7725379291,-2.34809867408,0.414314858553,0.182406010232,0.94168160841,cat 2,category 10
Jaqa,52.3787524675,-1.2492708405,0.830440229118,0.504520721854,0.832241080937,cat 1,category 14
zinkee,58.5129605255,-3.45501104621,0.122655035186,0.0661018663521,0.377659980818,cat 1,category 5
Skojam Designs,,,0.871319068072,0.339418229214,0.285677933405,cat 3,category 21
TwiSense,51.514496551,-3.18143374373,0.876733229893,0.326803547296,0.728715922058,cat 4,category 5
JamYou,53.2374132183,-1.42087587829,0.00900780155087,0.835115345812,0.475524501222,cat 4,category 18
Plurkee Designs,51.4408329499,-0.913606090606,0.652493092936,0.862116470568,0.00285510271518,cat 1,category 27
QuirbSter,53.0174652033,-1.32961384287,0.665217921159,0.840729437233,0.48783870569,cat 2,category 22
RemSauce,51.8538675524,0.995539653395,0.33406073834,0.509263711512,0.81267176716,cat 2,category 18
ZimMonkey,51.697360266,-0.190712647707,0.636343043653,0.67681710096,0.506206534021,cat 3,category 21
ZimSter,51.6865719872,-3.39682533735,0.179352677424,0.578401338772,0.0365056726747,cat 1,category 9
Yabio Collective,52.222745309,-1.75614444476,0.109221314521,0.770777518392,0.73407190751,cat 3,category 26
PlurEra,53.3560796511,-2.34213937953,0.254523951026,0.864672209857,0.261197126729,cat 4,category 18
Daygeo,50.7558004808,-1.6562387157,0.895254330585,0.518795694543,0.957429206254,cat 1,category 6
Zinmix,51.0668141253,-1.31984846106,0.659774884754,0.526903067895,0.407992204295,cat 3,category 8
Probio,55.9224329512,-4.31761296878,0.625566643979,0.748387293506,0.194302352562,cat 1,category 7
dokee,52.5898189581,1.63074748532,0.99223514526,0.507894582092,0.167173360588,cat 2,category 5
Scronico Media,50.82140773,-0.354121164641,0.675129200366,0.191011407876,0.480875581513,cat 1,category 14
cloudba,51.4846932247,0.413439139405,0.352584679822,0.958233728639,0.422514185291,cat 1,category 29
QuirbScro,55.8440354725,-4.30224109018,0.412886379218,0.633394684974,0.471039064029,cat 3,category 26
TwiOn,56.024360378,-3.83089978388,0.728390698969,0.407050441106,0.911492914963,cat 1,category 23
Yeddckr,56.8551489368,-5.28271214249,0.795670583166,0.5554138773,0.454743156821,cat 2,category 5
Blinghop,52.3448912428,-1.84354889161,0.705610536381,0.990316805953,0.957363728065,cat 3,category 26
Zula Systems,55.9115371938,-4.4282566256,0.102427818642,0.499949633097,0.64447302642,cat 4,category 6
jibspace,55.8672090142,-3.94882692951,0.860042646815,0.718215152381,0.389288255323,cat 1,category 18
Zinmee Media,51.9904940089,-0.196238316766,0.8274295398,0.295433027925,0.719270739102,cat 1,category 17
Ijam Media,51.1169220429,-0.161184080972,0.807781948245,0.331175043215,0.274874088166,cat 3,category 0
dayga,51.2440788837,0.00600166059646,0.318158793123,0.97662335961,0.450896498859,cat 1,category 10
Claxjing Media,52.5783433482,-1.55362934547,0.0293569276886,0.95537092011,0.315297213365,cat 2,category 9
yojam,51.9757784004,1.32057328632,0.406077299258,0.457797405879,0.916330358708,cat 2,category 0
mycloud,58.4416112713,-3.09694569401,0.867071307025,0.148132844023,0.831996432607,cat 4,category 19
JibLa,50.3875466623,-4.46515421046,0.521777994383,0.695433677588,0.472801578659,cat 1,category 15
Trunico,52.5958584359,-3.85426265141,0.182236233005,0.858604518866,0.65026900731,cat 1,category 13
Glifdiant,52.0265023484,-0.595501265196,0.300269074476,0.78247749561,0.327635801726,cat 1,category 16
Adbo Systems,52.2840207227,-1.53379614176,0.0847902332167,0.20836966228,0.994052980866,cat 3,category 23
projam,51.433917808,-2.60471417146,0.855137307825,0.780476634231,0.356888814306,cat 4,category 5
trumee,53.3447355886,-2.21542694728,0.495995895949,0.267326021086,0.412708380918,cat 1,category 6
claxmo,54.8895876455,-2.93114031796,0.0824556676632,0.596737678479,0.641332193337,cat 4,category 9
Dohop Labs,51.440495888,-2.5931471191,0.760254512855,0.729916904406,0.0838158134348,cat 4,category 23
TruScro,53.2647113409,-2.60242659195,0.25998402782,0.241024393352,0.381667407398,cat 1,category 10
ZinZee,51.7156381147,-2.52632174493,0.142247101168,0.130148188487,0.586655596795,cat 2,category 27
JamStar,52.5853759157,-4.09207344159,0.122088461361,0.809335186195,0.0750351489962,cat 4,category 14
TruZizzl,51.8311878123,-0.859615647519,0.882005124626,0.28602437796,0.623623246708,cat 4,category 19
Twiga,53.4067023119,-2.89430039692,0.447146989682,0.264093103744,0.956463242829,cat 1,category 3
NiMonkey,50.9107797779,-1.43484685269,0.984263220044,0.79389066744,0.503351897863,cat 2,category 19
Openzee,52.5824111653,-1.13525411567,0.059270718184,0.629056123123,0.332834071362,cat 4,category 14
JibEra,53.6677649055,-1.75333843759,0.940910010716,0.259319455948,0.761092651401,cat 4,category 7
KosGa,51.1643573464,-0.637432593807,0.144763020337,0.23554109728,0.681565473567,cat 1,category 13
NiBo,55.8169951132,-4.0214628063,0.582031826579,0.128413171456,0.182120194178,cat 3,category 22
Looscro Systems,53.6622146865,-1.47953834277,0.134482963904,0.581266028109,0.0295478671929,cat 4,category 23
raster,53.1132425447,-1.54848632794,0.88138194169,0.200500504248,0.841114015662,cat 3,category 28
ProFish,53.7855921354,-2.24932627234,0.212771229502,0.803152176481,0.881098102621,cat 1,category 24
twimee,53.4512616043,-1.97059837991,0.474949647111,0.207967715743,0.188298051468,cat 1,category 23
livebee,53.0605779699,-0.911209930743,0.880612500558,0.11069662716,0.549872187631,cat 1,category 3
Zujing Systems,50.7608768204,-1.53774362923,0.879175850488,0.956071908207,0.378288632087,cat 3,category 9
Cloudtra,50.2090280755,-5.47779905342,0.555911086036,0.215651219266,0.196297347898,cat 1,category 13
Docloud Collective,52.6451479901,-2.299833444,0.922708720608,0.566667679338,0.745568760657,cat 1,category 20
claxgeo,51.2851546494,1.07748524556,0.224773197321,0.243907311919,0.141419335985,cat 3,category 20
Liveon Collective,51.8054249332,0.638837280537,0.00615304919446,0.469793067076,0.985250081496,cat 4,category 6
IFish,53.1584821258,-2.1924332579,0.791562684329,0.804890818549,0.839687944321,cat 1,category 13
DayDoodle,55.6917620447,-3.673881172,0.204014396823,0.219361541084,0.907976550893,cat 1,category 10
Remster,51.4456876402,-3.18793074443,0.66861850381,0.519386368322,0.270099615297,cat 2,category 14
Skoera Labs,53.6767856968,-0.336738652853,0.615065521183,0.483939108065,0.830042141698,cat 3,category 4
Flojing Systems,54.1485741661,-2.30256261057,0.70816665379,0.791105583791,0.23433298307,cat 3,category 24
Scroga,,,0.410482057913,0.862682231744,0.79374117973,cat 2,category 25
Yadoo Designs,53.283445362,-3.80807573379,0.837943813331,0.449011630282,0.768507140402,cat 3,category 5
jamonkey,55.8970769735,-3.63623685424,0.622076697299,0.250118404335,0.0456871740698,cat 2,category 5
Claxla,50.8388883816,0.457158629786,0.837640197887,0.103827162372,0.568832361151,cat 2,category 26
ProDiant,52.964417295,-1.07941359977,0.313146785879,0.790346830256,0.998495549026,cat 4,category 27
QuirbNet,52.1514259266,1.05671533347,0.0805390798265,0.250714941227,0.0680995152913,cat 1,category 13
BoNet,53.1692968474,-0.70380922689,0.394808374585,0.364769332175,0.0588417078325,cat 1,category 11
truzing,52.639494525,-1.84560499764,0.82452202045,0.360627306359,0.169939724774,cat 1,category 24
TwiBee,52.422818173,-2.88476727755,0.749016742733,0.248287032538,0.910197136593,cat 3,category 16
Pluron,53.3649268798,-2.82888029768,0.886913207194,0.260061917439,0.667658623465,cat 2,category 28
Plurstar Designs,54.5439749403,-1.19741004523,0.127126690378,0.439866617473,0.412407766775,cat 4,category 20
blaofish,51.3175802874,-0.38955108426,0.129079133019,0.53183522021,0.703879346528,cat 2,category 10
twiyou,51.0891384424,0.200283294598,0.518393678946,0.894921654272,0.960471511738,cat 3,category 4
Tubnit,55.0745457477,-3.60665411318,0.676998486412,0.48677071316,0.103278740872,cat 3,category 26
IniScro,51.882670351,-0.410598333973,0.247570239148,0.0871706003243,0.882758822108,cat 1,category 10
Claxnit,52.0694343453,-0.521862228844,0.505091705464,0.97106227091,0.797866467512,cat 1,category 1
Protra,,,0.271086403565,0.221708277683,0.986990737309,cat 1,category 16
ZuMonkey,55.8105488414,-4.31223308439,0.289300544114,0.980653594171,0.391051023077,cat 1,category 15
trubo,52.4898823835,-1.91306460293,0.259275241881,0.545632589799,0.466520166263,cat 2,category 11
TwiDiant,53.6032910428,-0.956016880169,0.157215279562,0.510790641134,0.382521536973,cat 2,category 24
yabio,51.8521801971,1.11241197524,0.393321746486,0.351958976601,0.787994456103,cat 2,category 4
scronet,51.3772039049,-2.35835059548,0.493983674093,0.438567599127,0.408313669002,cat 3,category 2
OpenSy,51.1828753543,0.391412484668,0.34058851032,0.335210457054,0.83865512859,cat 1,category 26
Blaokee,52.0806496941,1.16719512425,0.248450364676,0.808012470954,0.385179447965,cat 4,category 0
Openba,54.2582597105,-3.21627977724,0.11814859542,0.646010928901,0.165754972277,cat 4,category 7
Smugzizzl,52.8989165714,-4.37315284466,0.719772145169,0.169410826488,0.0849261375484,cat 2,category 25
Zudiant,51.5300706015,0.79765426827,0.442997197998,0.239117511579,0.30047570455,cat 1,category 15
ibichi,53.7006746138,-0.357913805399,0.184281361323,7.55742454828e-05,0.452699823271,cat 2,category 27
ZimQa,54.2455576703,-3.24552522304,0.896938395758,0.43716416937,0.994524836075,cat 4,category 6
ZuBee,51.6916067617,-4.0776487479,0.826798946729,0.974416048008,0.26327129103,cat 2,category 28
Openga Designs,51.7001148457,-3.4147518873,0.233169805111,0.255050505438,0.664273583706,cat 4,category 17
Kabchi Media,,,0.0978337210396,0.0557449836635,0.402500500916,cat 3,category 19
ZinZa,50.8966131552,-1.3642058906,0.690793359066,0.504279914112,0.699886098289,cat 4,category 1
quirbsense,54.0108688512,-0.386623833905,0.127134406378,0.532975691248,0.666115747,cat 4,category 29
dayza,51.5193738586,-0.721487691802,0.598823821822,0.182567393827,0.991092057959,cat 2,category 13
jamga,54.9748580865,-2.24836687061,0.120668661206,0.121148065706,0.643831434778,cat 4,category 29
Yayou,51.1300298633,0.263043395836,0.515860001743,0.104887227287,0.251930767969,cat 2,category 4
Vertly,51.3602922173,1.43366136393,0.0288458147646,0.127842827943,0.646965793655,cat 1,category 29
Truzizzl Collective,53.8267426483,-1.22895350356,0.584737366468,0.156344118427,0.458539587167,cat 3,category 19
Zimbee Systems,53.5981912758,-2.84069415245,0.590401202905,0.599965023229,0.917247701001,cat 1,category 20
Dottrix,52.4063521958,-2.17818815844,0.324070867455,0.0638556358884,0.418304601927,cat 2,category 23
plurly,52.3932135334,-0.731733653572,0.918998284517,0.838982957298,0.634491698936,cat 3,category 25
Ibikee Systems,50.7272764961,-1.91812837254,0.463621850193,0.0426557508683,0.12413311405,cat 1,category 11
Adton,52.366352747,-1.85948128275,0.375212554235,0.918352042537,0.41655203221,cat 2,category 2
Bonit,51.2918102243,-0.418104411026,0.823005745507,0.617344516077,0.155095856087,cat 4,category 2
Zinton Designs,52.0593131661,-2.70742248263,0.348379988878,0.587850278466,0.540276057636,cat 3,category 15
Livekee,51.9044792007,-1.15414386405,0.328851916902,0.496001537915,0.669075416839,cat 1,category 12
Yonet Collective,53.5876435349,-1.53075903571,0.287745476397,0.772228348235,0.239382269106,cat 1,category 13
Blingster,53.5884662838,-1.02610228372,0.397368714221,0.807744609452,0.911748875683,cat 3,category 19
TubLa,56.0111409977,-3.39549798375,0.836806241891,0.295064375518,0.869876203451,cat 3,category 10
ZinGeo,52.126642529,-0.281482156561,0.973646412774,0.189542792239,0.161810334625,cat 4,category 3
Openmo,51.4420068278,0.365569051622,0.540987096315,0.506665263689,0.712700118036,cat 1,category 7
Myba,53.3845109755,-0.768249167319,0.836699822928,0.546632037751,0.252649577312,cat 3,category 19
Kosmee,51.7086348309,-0.110076447194,0.662467222889,0.866227906673,0.759107167263,cat 4,category 13
Plurckr Media,56.4306099716,-5.24024210913,0.340430850619,0.452550016724,0.672659350916,cat 1,category 12
iqa,52.6589207726,-2.02065491353,0.300859854499,0.497031732088,0.675688794163,cat 2,category 13
Yaly Designs,53.3932891959,-2.23138643679,0.638668434367,0.174335068717,0.529875050517,cat 4,category 16
youckr,50.3398259678,-4.78953158992,0.106864535838,0.325468318587,0.53793461793,cat 1,category 16
IbiSauce,51.8141765278,0.160344865267,0.431966745376,0.73843138258,0.564540027733,cat 1,category 20
BlaoDiant,50.3894031799,-4.74741768963,0.803705380243,0.705535442607,0.189136774393,cat 2,category 21
JaBo,52.3598598224,-3.09687738743,0.113829187209,0.230717566828,0.645488118477,cat 2,category 9
Jibbox,50.8302750561,0.0305983447787,0.960449917689,0.0767765650333,0.846445292336,cat 4,category 22
Glifmo Labs,52.6247520355,-1.61062354622,0.160638122155,0.449220569295,0.276467635392,cat 4,category 26
Liveba,51.4835162609,-0.608716110379,0.226824019545,0.914992002636,0.447692640806,cat 4,category 20
Admo Systems,53.6036854557,-1.92659317553,0.779708473866,0.344756943324,0.60377182265,cat 4,category 29
Ibizee,52.5276693999,1.62332808474,0.508120404658,0.15822831659,0.974799251166,cat 2,category 21
Clouddoodle Media,52.2260389232,-2.73049333527,0.108889485516,0.261574604107,0.942013627929,cat 3,category 7
Remnet Systems,53.147505847,-2.39624713183,0.667919155549,0.173028798754,0.728373535929,cat 3,category 15
Quirbjam Collective,57.1438639079,-2.09921435331,0.553810184279,0.421265565002,0.694585823872,cat 3,category 10
quirbton,51.468753731,-2.59725670472,0.182689631242,0.0243121029255,0.6790151641,cat 1,category 20
Twitrix Systems,54.1742867587,-0.314771894025,0.744970925835,0.980949950836,0.323133574028,cat 1,category 1
quirbster,55.8665112761,-4.04497162547,0.685148652754,0.497492492817,0.84006113084,cat 3,category 24
YoMix,51.5211602231,-1.1333006855,0.144042383421,0.325378856123,0.362798070695,cat 3,category 6
vertjing,53.5580895711,-1.48066555156,0.0351276571117,0.207603487806,0.53907248329,cat 2,category 24
Yeddspace Systems,53.4060079286,-2.98807554487,0.848884038887,0.492223002883,0.090815543102,cat 4,category 25
BlingNet,55.9401611891,-4.80479798114,0.00357360468363,0.308328678289,0.733151187607,cat 4,category 25
Smugba Collective,55.5022168572,-4.61392383357,0.57307891602,0.0359634865799,0.674346583571,cat 3,category 25
Zinzing Collective,55.8337197028,-4.28430415413,0.820542712685,0.0291039730817,0.954359346286,cat 1,category 21
Kabtrix Designs,53.7884009464,-3.05479795962,0.160189296543,0.792309728405,0.584906683661,cat 2,category 6
Blaodoo,51.5439016245,0.562388913594,0.021129637607,0.342241475675,0.0318574511892,cat 1,category 17
twimee,51.5441364563,-3.18472506045,0.375663467844,0.607952250192,0.501260624628,cat 2,category 17
twidiant,53.5179117788,-1.31163821067,0.49851567354,0.525849353241,0.784848175596,cat 4,category 25
VertSy,55.9416820396,-4.73115291304,0.0375744511575,0.867695961817,0.887386791603,cat 2,category 11
Openla,54.4589366881,-1.08700497856,0.365090058619,0.563887415307,0.964848834134,cat 2,category 16
Plurhop,54.5411357457,-3.58237489515,0.947163904012,0.775918075431,0.0830443451619,cat 2,category 5
Myga,53.3360393,-2.73813896681,0.587186816547,0.72441919471,0.726232830727,cat 1,category 22
BlaoDoodle,51.6207690728,-3.12577662968,0.985660726782,0.804802637888,0.23912628515,cat 4,category 10
BlaoMix,50.9654298792,-0.121456309951,0.314693990935,0.652606201726,0.425981796673,cat 4,category 7
JamBee,52.7407148728,-4.07587903279,0.705809969236,0.357118671019,0.8164433899,cat 4,category 18
Jamsense,53.4242229926,-3.07006356281,0.780460405823,0.0668916433251,0.113991235491,cat 2,category 27
TubOn,54.1776498472,-2.97267754575,0.812188763002,0.69230762376,0.645688816868,cat 1,category 12
BlingHop,50.7760017369,-3.72552492586,0.0720262320989,0.0682190845188,0.260236764606,cat 3,category 25
RaTrix,51.919687242,0.228667732464,0.690209193992,0.813817068026,0.0991945824415,cat 3,category 5
CloudJing,50.7141256954,-3.47330975568,0.175759004424,0.757263984126,0.250069193464,cat 4,category 14
PlurSauce,55.8232691128,-4.08596539635,0.10630816275,0.687827263903,0.870309133766,cat 3,category 3
Ibidoodle Media,51.0612113681,-2.07843193306,0.989656676784,0.721633133115,0.105847598279,cat 2,category 4
Remly,53.2291390327,-2.66551736147,0.0878876120497,0.839071884341,0.255408612708,cat 3,category 21
Bobee Systems,51.3583483311,1.03527048327,0.28909362606,0.391400766793,0.0232935351895,cat 2,category 18
Zinbio,51.4468557559,0.218805547728,0.104259678748,0.606974700986,0.0634225728535,cat 2,category 24
Twizizzl,51.2442768191,0.976590638199,0.622735045913,0.150145054088,0.135472801558,cat 1,category 15
YaTon,52.4824983004,-1.89761793029,0.307985413007,0.753387493417,0.673587598723,cat 3,category 3
XoTrix,51.7453465166,-0.344081674462,0.345507136747,0.180584926992,0.635562000318,cat 4,category 21
Youzizzl Systems,53.4305102314,-2.09304855929,0.586111935153,0.355815281163,0.684617490384,cat 2,category 9
Zimzee Media,54.4402249478,-3.5422437664,0.664634044816,0.214589273941,0.574000224161,cat 2,category 26
kabmix,51.0200219229,0.363771151417,0.893139591613,0.12261991985,0.35957328009,cat 1,category 11
Jadoo,51.2970358192,0.246789845343,0.30804963456,0.134123224886,0.593743454692,cat 4,category 20
Blaoly,53.5661775477,-3.07281404774,0.972937675935,0.63209107528,0.592647811974,cat 3,category 28
Kosqa,51.2797900006,-0.958629498073,0.0238536552462,0.483080123487,0.69968264116,cat 1,category 28
smugspace,53.3986840759,-0.769719995637,0.0750436931876,0.447246810164,0.00859982478201,cat 2,category 14
blaosy,53.1849134049,-3.0313966228,0.403769329537,0.0826294951974,0.146829559417,cat 2,category 27
younico,55.7754588819,-2.0111330717,0.724009228282,0.186232733512,0.729524022542,cat 4,category 4
DoSauce,53.5815943937,-0.159128095331,0.199582236928,0.847906659867,0.82362824039,cat 3,category 14
LooGeo,50.8324864574,-0.235295478822,0.452911725735,0.0590367998035,0.211339819072,cat 4,category 29
glifba,51.4666805335,-3.18826002291,0.499274330637,0.409756814855,0.0480916767869,cat 1,category 22
Truga,53.3013605656,-1.46727811326,0.461173421146,0.302639300187,0.0321046196989,cat 2,category 10
Quirbgeo,,,0.538353862395,0.489873655639,0.567340685761,cat 3,category 23
yaspace,52.444450446,-2.84017998356,0.732805161068,0.0660073116125,0.771895496569,cat 3,category 22
twila,53.8176570311,-1.59396323865,0.761590064129,0.395332153382,0.98028416101,cat 4,category 25
Trumee,53.7541044711,-3.02959569546,0.888446874788,0.274575406485,0.902877116005,cat 3,category 29
Twickr Labs,51.6604498015,-3.80858877806,0.651677207365,0.845052651033,0.30029818904,cat 4,category 27
Xobio,55.8530892134,-4.15985902403,0.5165483233,0.582939615593,0.926575266569,cat 4,category 24
yojam,56.4011057994,-4.98322134514,0.536351602292,0.585999917355,0.821266684764,cat 1,category 26
yatra,55.9596677786,-4.65262396862,0.802692137647,0.894117920123,0.644978137969,cat 3,category 6
Adnico,53.3146819147,-0.945508930228,0.0848699404381,0.136487604356,0.0245810844656,cat 1,category 0
vertza,51.4101196827,-3.48122660216,0.605730677641,0.238334430269,0.827350753326,cat 4,category 6
Iniify Designs,53.2607862685,-2.94417219415,0.643102980142,0.454114329244,0.710569317071,cat 3,category 23
Livedoodle,53.4342045295,-2.43458374055,0.722011402643,0.0242615426692,0.543819504152,cat 3,category 26
NiJing,52.6028298332,0.36435689007,0.0686217975455,0.394118405575,0.561821852289,cat 2,category 19
looton,52.4193828287,0.74553032451,0.682899649691,0.427193272491,0.220670972902,cat 3,category 26
Claxbo Designs,50.9357216968,-3.90485545758,0.712885524243,0.942955219776,0.305707687378,cat 3,category 28
Bodoo Designs,51.5376722257,0.689957279264,0.186109238613,0.400728610443,0.190690688123,cat 1,category 13
Livemix Designs,55.8436194952,-3.60749338886,0.551291580215,0.37943263773,0.727275366796,cat 3,category 11
JibBa,51.5232284627,-0.648227004048,0.116881962294,0.564439803059,0.757529990949,cat 4,category 1
scrobox,51.3864843741,0.356092307187,0.856021355814,0.806277031408,0.33607552292,cat 2,category 26
SkoKee,51.6521700095,-0.280187792831,0.824284397178,0.482993839974,0.554784372114,cat 4,category 4
LooSy,54.2284791808,-1.37258394441,0.00211230759111,0.630831120361,0.783769435518,cat 4,category 29
livechi,51.6740686891,-0.609827462859,0.834328425596,0.528855728605,0.351290699117,cat 1,category 0
Plurdoodle,55.823720569,-4.30239758932,0.584311982592,0.588878194269,0.414949453181,cat 2,category 21
Dotsauce Designs,54.1694092996,-2.80444544968,0.00929461056749,0.834568980478,0.81407875255,cat 2,category 4
kabhop,57.6130395251,-4.68839504214,0.139102097083,0.108133555724,0.723314326271,cat 4,category 12
ZinScro,52.0216208181,-0.632249851775,0.853281759312,0.0202238810004,0.167729314261,cat 3,category 4
rago,53.521908085,-2.31308290571,0.656006034049,0.190666847765,0.0504150932307,cat 4,category 16
Twinit Collective,54.5515015299,-1.20762103165,0.47169719504,0.617754198076,0.385822316128,cat 2,category 7
Scrobee Labs,58.3883401755,-3.70526312261,0.83879104886,0.304172276362,0.519792600397,cat 3,category 20
boqa,55.9473250872,-4.57993927579,0.70171999712,0.187548818183,0.96242086848,cat 2,category 14
Daymee,51.5756890352,-3.22927078668,0.153873956659,0.548817313353,0.154682185959,cat 2,category 29
Quirbnico Collective,50.7012874699,-2.31762861269,0.972051712967,0.33626632707,0.233514956395,cat 2,category 3
Loocloud Systems,,,0.55334997007,0.396474741835,0.380760893959,cat 1,category 23
DoTon,53.3836133965,-3.01627297805,0.621597915527,0.317673732313,0.96153912985,cat 2,category 13
YoGa,50.738033106,-1.78483020522,0.873869823661,0.590512415396,0.491120721196,cat 1,category 18
twisy,55.9407196546,-3.01648267574,0.736183672451,0.692166837133,0.199360958366,cat 4,category 21
ZuScro,,,0.391808781812,0.647712702099,0.995125825971,cat 3,category 21
Filmee,52.7538792701,0.402910698853,0.0370817110658,0.177508549915,0.361327245982,cat 4,category 22
Zusauce,53.0645304395,-0.901111605734,0.056273251672,0.536654728014,0.741743908396,cat 3,category 29
Jago,51.156170449,-0.00446346050264,0.995305656685,0.131640160731,0.995778698528,cat 2,category 16
Zinmonkey,55.945790478,-3.2200501518,0.249562328709,0.723270101956,0.543401084579,cat 2,category 18
ScroBox,55.8665801329,-4.02723504118,0.790081907618,0.307826050984,0.341704466567,cat 1,category 27
LiveStar,51.3446187817,-2.25091800072,0.894116399455,0.0750718419037,0.940698144696,cat 2,category 16
zimhop,55.8110568814,-3.97096304808,0.0678081433964,0.0192567341353,0.805958909744,cat 3,category 17
myfish,54.5338933499,-1.55042044232,0.0465572581985,0.446593408657,0.0131979446689,cat 4,category 11
yomee,51.430599229,-0.877239184431,0.05778854027,0.0699643340274,0.550601609361,cat 4,category 14
Adsauce,51.8529245853,-4.88529844427,0.010213856123,0.420762662151,0.149182017071,cat 3,category 29
Donico,55.9408729724,-4.7733778773,0.488491985146,0.808352337044,0.708618532549,cat 3,category 10
vertnico,51.2462094152,-0.760667765136,0.608670032045,0.889137393191,0.200723287034,cat 2,category 27
smuggeo,56.004758212,-2.78660169332,0.0868638970213,0.716721387847,0.336059446462,cat 2,category 22
PlurBo,50.9511821207,-1.36139776508,0.38734760602,0.649503216389,0.36639646853,cat 1,category 10
Dodoo Collective,51.7498987051,-0.328993662967,0.217336979229,0.769438924225,0.490407786656,cat 4,category 14
Twiyou,53.7821076477,-2.31661159843,0.0226287294344,0.505384686444,0.308041995555,cat 4,category 1
KosBee,51.497609389,-2.69638437473,0.66693861868,0.642621520062,0.368596912865,cat 4,category 29
ICkr,53.5596295508,-2.69371757075,0.309378698226,0.66198022711,0.549678120815,cat 4,category 8
youbox,53.4689821336,-2.17267155815,0.794730983408,0.526231727606,0.654310375681,cat 1,category 19
tubmix,52.4555738927,-2.14439318375,0.853833025561,0.589105705657,0.130465168057,cat 3,category 6
SkoKee,51.4021345237,-1.13670178184,0.418113513174,0.366291378895,0.280398985085,cat 2,category 9
LiveOn,54.4809560937,-0.974924358393,0.414754818552,0.65730444355,0.0304977244086,cat 4,category 8
inibox,53.7816463269,-0.406358123153,0.0490107613599,0.246513971816,0.27824146691,cat 4,category 23
yoton,50.9916872013,-1.48815148843,0.529721724117,0.36549895358,0.740000815938,cat 3,category 10
Dotdiant,53.1416613956,-1.20016145036,0.617254365457,0.546573931126,0.862479201209,cat 3,category 18
Blingbo Designs,,,0.971025662664,0.00428137382713,0.925289092735,cat 3,category 1
Yoly,53.0860676601,-2.24563417482,0.258386069427,0.588286552268,0.554709385165,cat 2,category 9
Vertzizzl,51.3600958327,1.07000983917,0.161505383299,0.375089301104,0.235078870821,cat 1,category 29
Scromix Labs,51.3504369202,-0.256253641071,0.189297327913,0.256811338068,0.720380252726,cat 1,category 28
Cloudzing Collective,55.834428168,-4.50409835815,0.126012000722,0.460472556031,0.181678346947,cat 2,category 22
Loogo Collective,52.4417558288,-1.93640300521,0.131225402002,0.742101587032,0.621946908213,cat 1,category 8
Ibibio Collective,53.7909640875,-2.25914879834,0.676203557878,0.134091307359,0.880774402281,cat 1,category 1
DoGo,51.9712620743,0.768640463981,0.685615615956,0.721565018353,0.454912495072,cat 4,category 27
TubEra,53.61779316,-2.40918165985,0.909206795519,0.478386385124,0.467820295201,cat 3,category 11
INit,51.4578855538,-0.541844218341,0.532149735559,0.885362292153,0.670173986435,cat 1,category 29
DoKee,53.4128447298,-2.52681390093,0.211031896568,0.733508527305,0.852106269398,cat 4,category 12
Yokee Media,52.0502956188,1.18218739945,0.628920577628,0.969398052829,0.821708228348,cat 1,category 27
jibton,50.1505654426,-5.05555701538,0.695817104328,0.623737554012,0.739554697879,cat 3,category 18
tubon,52.240043878,-3.38097007489,0.991040119361,0.404416753478,0.945990863637,cat 4,category 9
Vertbo,53.2593394532,-2.12280624059,0.515237589874,0.907270427875,0.667072868057,cat 4,category 6
XoSauce,52.9607085266,-1.07644044117,0.225898394379,0.778553814043,0.117036419675,cat 4,category 25
rafish,51.9610722946,-3.87350296512,0.00568535199599,0.185592550401,0.983149109748,cat 2,category 28
Skotrix,50.9690610706,0.0983895168056,0.49204933971,0.75778283483,0.885020635301,cat 1,category 25
MyMee,51.0734706337,-4.06275206077,0.687208336924,0.839337272688,0.654087021992,cat 4,category 3
raly,52.2534108668,0.712918943442,0.808301938074,0.343797748792,0.975085081937,cat 2,category 26
Livedoodle,56.5011990712,-2.70515017346,0.349628904393,0.954039505183,0.65244148452,cat 3,category 10
Jala Labs,53.8047168178,-1.68451069065,0.851166086899,0.898529557653,0.874846064437,cat 2,category 21
youkee,55.3933159052,-1.63686954266,0.272315044281,0.0485763476449,0.441407821601,cat 2,category 9
Livesy,53.722224578,-0.808188939416,0.626742921883,0.737775863526,0.24120148224,cat 3,category 14
Zingeo,,,0.415512716781,0.741640032205,0.481951156121,cat 1,category 12
Filgo,55.4016761011,-4.1834134335,0.857632528003,0.862992711354,0.76877965594,cat 3,category 11
vertkee,52.9825084818,-1.04238767677,0.227612483934,0.74337576224,0.263725587249,cat 2,category 8
IDiant,51.2499127803,-0.712209115505,0.272197682987,0.954610702818,0.869093321357,cat 1,category 1
Youtrix Collective,58.4829230198,-3.55384773722,0.931609268737,0.966711233155,0.0772787381506,cat 3,category 8
XoNet,54.1149791729,-3.19502230534,0.834930523648,0.433146420391,0.200585634052,cat 4,category 25
bokee,51.7708229315,-0.942732031364,0.498651212933,0.393230931692,0.616156536006,cat 4,category 0
SkoStar,52.7009471488,-2.51642125171,0.454256750152,0.0674802150931,0.436448672228,cat 4,category 2
ISense,52.4767775744,1.71688006807,0.180133873835,0.395454012947,0.795160016475,cat 1,category 12
proga,55.8700899751,-4.30993723121,0.793936459567,0.707730215008,0.307041909308,cat 3,category 20
FloJing,52.9486038563,-1.03509948495,0.0534749419745,0.624048969458,0.613220512545,cat 2,category 11
plurjam,51.4794847526,-3.17131238909,0.17967906401,0.303358931037,0.664541777683,cat 4,category 29
tubzizzl,51.2385790238,-0.16579249065,0.015197413313,0.360660674059,0.223850456564,cat 3,category 4
Jabox Systems,52.395651638,-1.64188690793,0.621721665767,0.520251642991,0.726473434833,cat 2,category 17
ScroZa,51.3313692175,0.188533451094,0.543368449507,0.983113981384,0.16411971727,cat 4,category 12
blington,53.7782437753,-2.47880069426,0.523522345251,0.110952254636,0.120292986688,cat 1,category 3
jacloud,,,0.685084942437,0.630922483622,0.786643519132,cat 4,category 27
YouQa,50.8965284648,-2.57348066426,0.625088126951,0.886656491757,0.119906150553,cat 4,category 11
Flotrix Labs,52.6240762438,-2.18579381974,0.729624027573,0.477489730477,0.312878860973,cat 3,category 6
Ibimonkey Media,51.978699646,0.215577937341,0.49930036346,0.0277560620843,0.704827277596,cat 1,category 16
vertzizzl,55.9008356042,-4.50037852894,0.570887503791,0.867510669957,0.447731130074,cat 4,category 8
Koson Media,53.4433780641,-2.19341886472,0.749044898546,0.494080930538,0.570806560488,cat 1,category 15
Flobio Media,53.0931061045,-2.2932345482,0.669465429228,0.722613247964,0.0861441879542,cat 2,category 1
TruNit,51.0691071539,0.855907470963,0.603313179296,0.193294123869,0.31635150702,cat 1,category 13
BlaoMix,51.9384664386,1.27998008338,0.84288109555,0.778473156815,0.364483321698,cat 4,category 0
Looyou,53.8565736279,-1.84246049462,0.292956294392,0.0594642273038,0.767696842214,cat 4,category 12
ClaxFish,53.5583495858,-2.40498446398,0.55363065299,0.717529930814,0.215021662564,cat 1,category 13
Zinla,53.4288525666,-2.45958747808,0.58687122303,0.349638784094,0.237332236289,cat 3,category 23
glifsauce,50.445330307,-4.66332104726,0.397245406891,0.676406104088,0.21093447869,cat 4,category 10
ininico,51.2421104959,1.19834987032,0.787756093762,0.123575813872,0.517024466151,cat 1,category 11
Iniba,53.9579643053,-1.09318213389,0.217061799125,0.573988270081,0.479016610106,cat 1,category 21
Tubdoodle Labs,51.128496307,0.151343841994,0.224278724429,0.604138715386,0.945289105334,cat 1,category 9
Filmonkey,53.6330526473,-3.01628585046,0.092668894032,0.154652937404,0.423264924996,cat 3,category 1
Yajing,51.1267416095,1.30372418104,0.151881471354,0.101902853572,0.85068647665,cat 4,category 17
Janico Media,52.4802722078,-1.46877912642,0.088994786171,0.438618101527,0.608523294647,cat 3,category 9
Daykee,51.4945386948,-3.23342434015,0.558863250898,0.111156703927,0.974461467177,cat 4,category 12
Kosster,55.8166048482,-4.20269046802,0.987748579167,0.831567054503,0.845165802067,cat 1,category 11
Cloudtra,52.3971358693,-1.98209954901,0.471274053746,0.0709958149019,0.467301168307,cat 1,category 20
Twimix,52.1190449621,0.0555700480386,0.25895191878,0.443595961787,0.376020492754,cat 4,category 20
Openster,51.2613386913,1.13768139654,0.494858873196,0.321901241822,0.180164220836,cat 4,category 29
IniCloud,53.4712936311,-2.18947839063,0.459115481998,0.952903763358,0.982807457567,cat 2,category 0
Cloudhop Collective,51.6600118584,-3.32212906745,0.710181764753,0.840136300462,0.407093996211,cat 4,category 6
quirbton,51.8130355237,-0.815176363139,0.521714674099,0.917365790174,0.0689291244317,cat 2,category 0
jaify,51.3983432532,-1.30344538302,0.792917371776,0.665249182155,0.786512320439,cat 1,category 15
YaLy,53.3859900078,-2.34967124029,0.500427855096,0.858045640407,0.258749391241,cat 3,category 28
Ibimee,51.8396074868,-4.72931725261,0.393430826204,0.612802661701,0.916345217961,cat 2,category 4
Zugo,53.730957008,-2.54412356869,0.219664715859,0.439689898686,0.307092797048,cat 4,category 28
Blingla,56.4748514169,-2.83899455949,0.97759020503,0.431382652811,0.350998633696,cat 2,category 20
Vertmee,51.4513816764,0.264291934876,0.230046181925,0.584760910665,0.940347288601,cat 4,category 5
Jibcloud,56.3757229968,-2.89469908353,0.260231718294,0.656285868645,0.426479113728,cat 1,category 15
Tubera,51.0551917442,-0.13609077189,0.270155472202,0.782652867215,0.401811485683,cat 1,category 13
Dayba Designs,52.360310941,-1.84474269567,0.105240370248,0.71226162685,0.0675088152961,cat 3,category 9
DayScro,52.4836237764,-1.85601630298,0.05392018409,0.54122055786,0.388017901399,cat 2,category 29
ispace,55.905486748,-4.33924073916,0.318483400712,0.884739262754,0.52188100173,cat 2,category 0
tubly,53.2843160301,-2.92399141212,0.745387727609,0.444264881764,0.319599499898,cat 2,category 15
zugo,54.6087512419,-1.05160710554,0.198357188482,0.111668982133,0.182219063735,cat 4,category 18
Filjam Designs,52.7243958121,-2.12025846176,0.418672626498,0.384388415386,0.502608534747,cat 1,category 5
Vertmo Collective,51.4840908997,-2.67868069455,0.15674330023,0.418566602059,0.667775074587,cat 4,category 22
IMix,53.4322698628,-2.13316372636,0.782098306893,0.104176241532,0.57704684639,cat 2,category 7
Kossy Media,55.4579330704,-4.62507079328,0.495310298579,0.0652760898363,0.430033746411,cat 3,category 21
Kabnit Media,55.6418060537,-4.8092496887,0.414717572752,0.181167944261,0.211501156766,cat 2,category 17
Bozee Media,50.404016364,-5.02989639848,0.0151861790316,0.334229574325,0.419367055923,cat 3,category 19
Yospace,52.1091969825,-2.31827081197,0.64481411248,0.52502351393,0.908532482848,cat 3,category 29
Yala Labs,53.1636302886,-3.05459408743,0.776281994513,0.97059534282,0.946286278795,cat 2,category 24
BoZizzl,52.3453881523,-3.0419095346,0.476487080621,0.854533304378,0.0229856068996,cat 2,category 14
Plursense Collective,52.1364926603,-0.478146071974,0.650980131148,0.11538809161,0.33043043006,cat 2,category 8
IniFish,53.4088547551,-2.22334782083,0.299636888612,0.664070802409,0.406591354068,cat 1,category 22
Jamdoodle,55.8117593594,-3.83861687779,0.609442176989,0.45333627577,0.867848975598,cat 1,category 17
TruSauce,52.2947203312,-3.26352908727,0.979866089095,0.45351139819,0.839133600959,cat 3,category 21
Zubox Media,51.2167615376,-2.97212403615,0.192167002323,0.969803087964,0.881291282417,cat 4,category 5
Claxhop,52.0986022466,-1.94747382201,0.557027166527,0.654152350248,0.145992444536,cat 1,category 28
blingzizzl,55.905837569,-4.874326635,0.615966118194,0.565341268866,0.61449648591,cat 1,category 17
mybio,52.0302360047,-0.110103014424,0.97757848703,0.204125495821,0.592527023127,cat 3,category 4
ClaxDoo,52.0803199981,-2.35571332335,0.973582900165,0.892656307729,0.430620569175,cat 2,category 29
twister,51.3456880263,-0.801923449727,0.605137611802,0.169710792184,0.779141747734,cat 4,category 21
glifmo,53.786414266,-2.28378441198,0.5151123111,0.0489393311037,0.148864642749,cat 2,category 26
Daymix Media,55.8211365644,-4.26001888344,0.532970157888,0.0635742591495,0.138594125647,cat 3,category 7
remnit,53.4040524908,-2.16390987886,0.778792566467,0.897569618459,0.926565848674,cat 1,category 27
Zinnit,55.9308612442,-4.65465691525,0.5978152651,0.688411717635,0.14867823749,cat 2,category 18
openkee,52.8307296479,-4.11075057699,0.884766625706,0.70855476288,0.322356849136,cat 4,category 7
BoHop,51.6570394146,-3.50550062217,0.913836493479,0.180494918747,0.0375685766646,cat 1,category 9
Smugera,52.0184324954,-0.655212233554,0.162908028063,0.218591547985,0.903131509387,cat 1,category 18
Nimix,55.9423542669,-3.10123775063,0.870772096242,0.746106180454,0.396678546065,cat 3,category 24
twizing,53.534557703,-1.56393486984,0.345696983965,0.966820626474,0.725767468188,cat 2,category 4
tubon,51.9948414106,-3.80412089202,0.203632060904,0.442966725728,0.761990248809,cat 1,category 12
Quirbdoodle,53.7865778425,-2.88581757318,0.623126963769,0.672750026511,0.374060120909,cat 1,category 11
Vertkee Labs,51.6722305099,-4.90576028752,0.0953327327357,0.397259365631,0.695275553253,cat 3,category 28
Pronit Media,53.7077537594,-1.90550680637,0.445346247784,0.351413294088,0.943568317903,cat 3,category 16
kabjam,53.3364959954,-3.40713169433,0.671640576597,0.327415610631,0.112765150467,cat 4,category 6
bozizzl,53.3475641093,-2.24045173003,0.950766969915,0.399753554117,0.187917652157,cat 2,category 13
ramo,53.8504019927,-1.75340714492,0.46998507056,0.682264839995,0.0560546349582,cat 3,category 6
Liveba,51.7627950937,-0.563124965191,0.581377796038,0.319382260607,0.858320465402,cat 1,category 5
Blaozee Media,51.3922173356,0.171096297674,0.899824857395,0.201447258784,0.636705078737,cat 3,category 4
Ramix Labs,52.0546098652,-0.0227991044422,0.520407919353,0.291363916628,0.345955902547,cat 4,category 20
kabsy,51.8755426667,0.557523834343,0.479226442893,0.258359868266,0.546046045264,cat 4,category 14
Jamhop,50.903501904,-0.00966867485203,0.831982536002,0.740561457072,0.513532825442,cat 1,category 8
TubNit,,,0.731980599569,0.515353791233,0.831298231088,cat 2,category 3
Adckr Media,52.9690084849,-2.67059616083,0.307253596839,0.653080798689,0.460207404183,cat 2,category 19
Rackr Media,53.3880684878,-3.02088998388,0.0346865005985,0.855021055247,0.456501480172,cat 3,category 3
Vertsauce Media,51.5211655902,-3.20207357479,0.064747453118,0.459638637978,0.610753118487,cat 2,category 10
Jatra Media,55.788508752,-4.27479724325,0.603646151727,0.791794374937,0.304421380644,cat 3,category 23
IbiSauce,52.1010544099,-1.83031397329,0.251678501012,0.764176942259,0.112749727082,cat 1,category 26
truzizzl,51.8579390839,-0.663341909813,0.41348244656,0.64912791016,0.27904760849,cat 4,category 11
dayjing,51.5681304547,0.336684882516,0.94005315984,0.591349311257,0.160805997815,cat 2,category 9
Zumix,53.5630614853,-1.07560377571,0.364805552978,0.163042455245,0.0469961775922,cat 3,category 10
Xokee Designs,53.525548198,-3.05768237154,0.273585842644,0.960997857475,0.722160144353,cat 4,category 15
jamga,51.5386590588,0.732848833974,0.922849979047,0.135403965243,0.648709985271,cat 3,category 7
Dayzing,52.5264568119,-1.46343194293,0.29615553626,0.340327976303,0.417321322931,cat 4,category 15
Flodoo,53.2570374331,-3.98461529372,0.775102422904,0.502748758649,0.205268397007,cat 3,category 0
Quirbga Designs,52.0329516943,-0.774605326132,0.886241651094,0.30709357038,0.606527306828,cat 1,category 16
Yaify Systems,53.8485377666,-2.99102229656,0.289487618273,0.485609054024,0.00492386358217,cat 3,category 4
Ibihop,53.4890044727,-2.27923139543,0.186801515098,0.781928549886,0.890434810542,cat 3,category 10
doga,51.3724712466,-1.03425184278,0.195835616416,0.922990445736,0.950390461432,cat 4,category 15
Yabio Media,52.8561735851,-2.71957240271,0.226184780386,0.667720706968,0.583807982449,cat 1,category 23
blingsauce,52.4383288754,-1.80364822759,0.715569272325,0.698509744063,0.347627724203,cat 4,category 28
Yanit,53.3588984308,-2.89202173756,0.476492050309,0.223642847626,0.411913255731,cat 1,category 0
QuirbOn,51.7460657906,-2.27949961992,0.970772619124,0.856943548634,0.849883527129,cat 1,category 26
Floster Designs,52.3949529887,1.54333100253,0.219765868095,0.312108927456,0.913174926829,cat 2,category 26
Yodiant,51.0067326477,-0.943017996118,0.930264904239,0.722300499745,0.144812378882,cat 2,category 1
ScroCkr,51.9001477585,-0.206487532628,0.245966940746,0.723987273469,0.446165019007,cat 2,category 3
Zusy,56.2039693253,-4.7227699455,0.204184572031,0.446764406353,0.297674382564,cat 4,category 13
skola,51.2548766003,0.483863958345,0.698584501861,0.933792074522,0.224782497684,cat 4,category 16
CloudBo,53.2658150886,-1.21583887489,0.547276114285,0.529864265448,0.223130268362,cat 3,category 5
flola,52.6185723555,1.44057221449,0.255012093669,0.748258132991,0.473802050777,cat 1,category 11
dosense,,,0.385145588703,0.44447205924,0.878315655923,cat 1,category 14
Zimstar,50.7954209568,0.0539202587956,0.945062403301,0.336135543017,0.0470419598158,cat 1,category 4
jamnico,53.4907932763,-1.29316166435,0.942669896248,0.773193898224,0.923373269196,cat 3,category 11
yeddzee,52.9043552677,-4.06793384981,0.289444215342,0.538420933555,0.658209096254,cat 3,category 25
jamckr,55.9380342783,-4.74562951621,0.0192932388222,0.532673879207,0.074349122879,cat 3,category 3
filgo,50.9071861917,-1.40829415766,0.67233277424,0.372176397594,0.910497822002,cat 2,category 14
SkoBio,53.6451831943,-3.00076929002,0.255859134115,0.513295964019,0.956250811146,cat 1,category 6
Yanit,51.8564985308,0.955554661992,0.35814796552,0.16967744606,0.753152795198,cat 1,category 9
remsauce,51.4138467981,0.751140827347,0.536054600499,0.0162803354339,0.828670318935,cat 4,category 24
Tubfish Labs,51.994949249,-0.734933001869,0.63597059561,0.662252481424,0.342712431452,cat 3,category 3
Doscro,51.397334713,-1.32315322614,0.866469316116,0.967842151881,0.0394153428842,cat 1,category 19
kabjing,53.8749851774,-1.71348933644,0.748588500634,0.656413860851,0.429742167134,cat 4,category 14
plurspace,55.863093302,-4.25838033832,0.316583596323,0.801498633777,0.709652265801,cat 2,category 24
Blaodoodle,51.2639887097,-0.500903246383,0.0220168263293,0.819607584453,0.954338462836,cat 3,category 9
proly,51.6628829455,-0.392129783591,0.115699228212,0.732661215436,0.751422603187,cat 4,category 14
zusense,55.3068276198,-1.65199451981,0.266114071076,0.95639449168,0.139928864214,cat 2,category 9
trubox,53.6359013575,-1.80154143408,0.36685359234,0.471724289646,0.515232689809,cat 4,category 7
Ramo,52.3477147999,1.50473993373,0.0186142214627,0.650775717321,0.878814194316,cat 3,category 24
BlingStar,53.3871365538,-2.14249476228,0.500441247935,0.763866255639,0.476000962222,cat 1,category 27
YeddTrix,53.3880684878,-3.02088998388,0.744006013433,0.0858241161081,0.267461750702,cat 4,category 29
DotTrix,57.0599549146,-4.11899006118,0.343351113229,0.591350453899,0.503195236721,cat 3,category 22
Kabsense Designs,55.8045077289,-4.29408191774,0.942662753159,0.736623446983,0.0378717100777,cat 2,category 4
LiveGo,51.7578152364,-0.0957072213722,0.0336356245029,0.849359338625,0.427073392821,cat 3,category 27
Tubza Systems,51.6936956393,-4.93948066585,0.23736474803,0.451818896659,0.000672239080313,cat 2,category 4
scromonkey,51.6530619139,-1.23630917659,0.458717770112,0.0138620898885,0.702549093992,cat 1,category 20
Opentrix Systems,51.8166881427,-3.00964677098,0.249519680426,0.665079889011,0.744160767665,cat 4,category 20
Scrozing Systems,51.6192280658,-3.44834662966,0.627054341424,0.846663479994,0.889527157822,cat 3,category 28
PlurKee,53.0980851695,-3.03036357196,0.957861139578,0.388128673991,0.47697770059,cat 1,category 20
Remchi Systems,51.7314945137,-0.462897184195,0.42664698682,0.598034249873,0.268664765114,cat 2,category 17
Vertton Designs,51.8076114236,-0.0289851164857,0.558313636818,0.458519501205,0.354057472294,cat 1,category 27
RaGa,56.434273435,-4.71326520085,0.452626216607,0.74145687756,0.724338109983,cat 2,category 14
Xotrix Labs,53.2263805516,-0.536855928151,0.392439718158,0.83964909608,0.495081200783,cat 2,category 10
ClaxSpace,52.5301703861,-2.06599557407,0.477468187196,0.173108605479,0.528807650569,cat 1,category 1
Scrojam,54.0073246072,-2.22524669042,0.129160451738,0.632004824418,0.732950638416,cat 4,category 22
zimqa,53.7291813554,-1.98366891959,0.583527841667,0.977627184599,0.978444067079,cat 1,category 17
dotgo,50.8882982113,0.502203158379,0.269204120446,0.994364488008,0.702302323063,cat 4,category 22
doster,54.6132084474,-3.56589120633,0.341203594005,0.213822409457,0.0986665632738,cat 4,category 9
YouZa,54.418483422,-3.51306926144,0.724941858104,0.172406622696,0.50046044359,cat 1,category 6
Loostar,51.2766396202,0.181629630576,0.0211992054154,0.129249021745,0.932701446347,cat 3,category 7
Ibidoo Collective,56.8886654959,-4.83775756911,0.438092099075,0.352992427287,0.799923581571,cat 2,category 8
Dostar Labs,53.5295840838,-2.47862999974,0.382713416038,0.796643427156,0.317538515462,cat 1,category 18
zuhop,50.8349663252,-0.165754839458,0.00642860753228,0.370299848645,0.138538128321,cat 2,category 21
Kabba,53.5787314185,-2.71786362011,0.778039901145,0.929052789618,0.9263479221,cat 3,category 21
Zuzing Systems,53.019205218,-2.59631651335,0.963134514802,0.304101598828,0.86435996727,cat 3,category 18
Skojam Media,51.2259703202,0.412552698094,0.0590939887803,0.961883760546,0.87462752,cat 4,category 13
YoChi,51.6478977013,-4.03430740334,0.89972535208,0.523932633362,0.803168468479,cat 2,category 11
cloudsy,51.5232350331,-2.56243982552,0.535787227683,0.88762781861,0.0995106787958,cat 2,category 16
skonet,51.872094872,-0.396590391837,0.428404552972,0.445712315323,0.465319061421,cat 2,category 4
Jibsauce Systems,52.245119574,-1.75052959298,0.635918706866,0.55433100553,0.308258250905,cat 1,category 16
Yozee,51.9253171495,0.758610614608,0.763692887738,0.908139864043,0.742968244785,cat 3,category 20
Blingqa,53.4467603638,-1.94952269161,0.771366051544,0.870203618667,0.680145744586,cat 4,category 16
Yaster Media,55.9848820621,-4.57843285462,0.531414195358,0.0110832953895,0.191280158456,cat 3,category 8
iniify,53.4102153935,-2.83750835175,0.160490035809,0.266585301769,0.863694881275,cat 1,category 7
Kosbox,51.2580807743,-0.0060872775006,0.674079673049,0.400558698329,0.371138018021,cat 3,category 16
Skobox,52.9118670456,-1.41109868071,0.454956429878,0.447878458689,0.392599077075,cat 4,category 18
Jibdiant Collective,51.1804883011,-0.32176462104,0.651776094316,0.416932638675,0.332498617686,cat 1,category 5
JaKee,51.6720145088,-4.0997477225,0.245579437518,0.354853533502,0.191126156302,cat 2,category 28
loockr,51.2088530565,0.0588037479031,0.517552707871,0.906378006279,0.935068357426,cat 2,category 25
KosIfy,51.1706578166,1.34885959944,0.931753068388,0.356265376528,0.777687387292,cat 3,category 25
Opensy Systems,51.832001404,-1.39292017924,0.97958176597,0.527689203516,0.996954405098,cat 1,category 20
scrosy,53.6680058842,-2.77806063648,0.606565068998,0.0199149985844,0.893345689042,cat 4,category 6
Tubjing Systems,51.3802255797,-2.14471378521,0.85786409088,0.935450728436,0.321932088562,cat 3,category 16
FilMee,51.3748025762,-0.339525777954,0.113686609826,0.329475253279,0.0394362257403,cat 3,category 25
FloJam,51.3970540783,0.499179931642,0.651609285508,0.0912633630944,0.954209192049,cat 1,category 12
Jago,51.6102516529,-3.37989448072,0.865486982776,0.0875504460262,0.967137332658,cat 3,category 16
BoSy,52.1513656396,1.39877360016,0.670835299686,0.477088872577,0.557895204557,cat 4,category 9
Jibbio Systems,53.3068908583,-4.63222963017,0.853697506856,0.0791214014784,0.672541382593,cat 3,category 8
Openbo,51.3886048254,-2.83125637114,0.261223740536,0.351123537841,0.395869675971,cat 4,category 17
bozizzl,53.363289024,-1.35688405011,0.386919763083,0.0447733219042,0.834866720057,cat 2,category 20
proon,52.8927835349,-3.03321609646,0.0930450317363,0.105455386944,0.837428027473,cat 4,category 24
Zinnit,51.3038526025,-0.635529835905,0.918335220191,0.0513280576203,0.972712149915,cat 1,category 17
Dofish Designs,53.7171875412,-0.506995754322,0.345703848733,0.829136249774,0.0315212110714,cat 3,category 12
Ibidiant,53.4066906935,-2.97939666068,0.71506120285,0.342870371335,0.751162407369,cat 4,category 26
Yatrix Media,56.3915877353,-3.43830183652,0.506148890601,0.729865164775,0.0749313116327,cat 4,category 13
mynet,51.5207337284,-3.21344879911,0.747333806227,0.94174434453,0.684950200735,cat 1,category 19
daynet,55.2503102133,-4.84843137922,0.885866164939,0.0172974686857,0.987196856933,cat 3,category 24
Plurmo,53.5425347927,-1.14999562904,0.33795725278,0.686106956749,0.896385250452,cat 2,category 22
Zimfish Media,51.9392608391,-3.89354338564,0.093631559381,0.119355612365,0.207915879567,cat 2,category 24
Ibiera Labs,,,0.670737430221,0.646571049398,0.434416193621,cat 1,category 26
Zintra,54.9509582966,-1.64406612572,0.137109853154,0.826003282152,0.0713320778406,cat 3,category 11
SkoNet,54.7591698717,-3.33273536786,0.570378253011,0.859539085525,0.191725861602,cat 1,category 3
Flomee Labs,52.4963258933,0.179195327558,0.245368771277,0.607743535516,0.849900400741,cat 3,category 17
nister,51.5414757593,0.710301552068,0.840402172105,0.647680712511,0.273866848719,cat 4,category 18
JamSpace,52.951265393,-0.896690742797,0.0872713622167,0.665116884303,0.292843121556,cat 3,category 1
Twiyou,50.8335493325,-0.267208440199,0.928385232139,0.421362867651,0.21465094684,cat 2,category 22
XoSauce,53.0510709343,-3.8877021146,0.369029616683,0.195175218829,0.55752819584,cat 3,category 12
inichi,52.3708690084,-2.71672428753,0.294948452174,0.520505182917,0.0799597903121,cat 3,category 5
Tubkee,51.0151092329,-4.02387561341,0.585885195893,0.612600704812,0.914423446321,cat 4,category 3
ScroTon,55.7920433676,-3.99640194036,0.0885310495664,0.621429731761,0.590793659492,cat 1,category 27
Jamspace,52.4718582915,-1.9141305119,0.441482634241,0.68994142348,0.579518483818,cat 3,category 1
Xola,54.1542763746,-3.17938673179,0.838653726964,0.912867933732,0.903881038291,cat 1,category 27
admix,51.378806825,-2.37761643425,0.691637344222,0.290803842682,0.647741211412,cat 4,category 9
Kosckr Labs,,,0.328030855126,0.61444390201,0.149320690065,cat 2,category 8
Zinton,53.7975563959,-1.2329047529,0.296758911278,0.247675570944,0.02210740849,cat 1,category 13
glifbo,51.7248657796,-3.36332960884,0.89960635362,0.193507845318,0.735643003813,cat 4,category 26
ibiscro,56.2964728923,-3.04990406881,0.577901931251,0.473610551133,0.888396313415,cat 3,category 9
Quirbton Media,53.3755885035,-2.95392541865,0.373454241006,0.584414133074,0.820737111796,cat 3,category 24
Smugzing Systems,53.3614662289,-2.8543584121,0.182728946356,0.275441706697,0.570965263899,cat 3,category 11
Dayyou,52.0486512266,1.14968661539,0.34207454682,0.446554390464,0.652499040845,cat 4,category 21
Bozee Designs,50.8530995633,0.539037218852,0.966445559572,0.0658925606265,0.55364798607,cat 1,category 8
VertYou,57.3935460896,-5.45578626526,0.187845036188,0.275015521204,0.688030388297,cat 2,category 5
JibTra,51.8871020782,0.922172490985,0.787916548571,0.0177882264078,0.0369667454063,cat 1,category 27
VertLa,52.6148890996,-4.1236893051,0.340272453953,0.661751995478,0.017066585047,cat 1,category 23
yojing,51.5502225598,0.711254369404,0.579553681618,0.34385291213,0.594273564975,cat 1,category 16
ProSy,53.6561593017,-2.41318474506,0.681297153459,0.095094288047,0.528104288255,cat 4,category 6
ProCloud,52.8975487505,-1.47276119963,0.732276569123,0.658355680949,0.492942990453,cat 3,category 24
JamSter,,,0.117589409332,0.0525175123993,0.0437178559965,cat 2,category 1
cloudton,53.9210634731,-1.58100836755,0.512239662294,0.813287101044,0.763853416411,cat 2,category 3
yatra,51.6835291124,-1.24114877193,0.529731890262,0.487626445012,0.173308895832,cat 4,category 2
Nimix,51.7677329098,0.00543782250994,0.126923128916,0.496845392195,0.13294502034,cat 3,category 6
Trugo Labs,52.7074843436,-4.03226010112,0.0443054281717,0.538598267581,0.00439014527214,cat 2,category 6
KabStar,,,0.464088961691,0.232090893705,0.251487042789,cat 3,category 20
dotstar,50.8167693681,-1.57409946444,0.770595621848,0.784645057961,0.133105374083,cat 2,category 7
TwiQa,50.9193532261,0.60987537924,0.184880964124,0.414102052617,0.402543250467,cat 1,category 24
Vertzizzl,54.9718706666,-1.60654618681,0.321905971288,0.0435277464534,0.571710864078,cat 4,category 20
kabcloud,51.3608519196,0.734745944501,0.651044309728,0.591655783597,0.435205482525,cat 2,category 25
openbo,51.4814116724,0.236541652956,0.177380563459,0.78939423426,0.690834634795,cat 2,category 11
Tubnit Systems,51.5196049703,-3.5800212593,0.278774997357,0.94843344813,0.0264671650122,cat 2,category 15
ProBo,53.4066851445,-2.97458285631,0.862769201723,0.921694799845,0.426457869842,cat 1,category 22
ICkr,51.211478215,-0.793096832194,0.982352470568,0.783694544949,0.593808936176,cat 4,category 1
quirbmee,55.8303712261,-4.21432707792,0.222895345905,0.209951611914,0.204432429731,cat 3,category 29
Mymix,55.846791645,-4.42309773541,0.132774603528,0.628413674852,0.447192045264,cat 2,category 27
ScroNet,52.4017170016,-1.51491950832,0.0922110343812,0.575287907725,0.000699127942307,cat 4,category 17
imonkey,52.669331706,-4.08572994164,0.715406199368,0.62858797695,0.160537097632,cat 2,category 11
Procloud Collective,58.3568477617,-3.90328696368,0.630788882705,0.686371502799,0.604552410785,cat 2,category 9
trunet,51.3096374005,-0.243022311461,0.24634786061,0.411534827532,0.463223392302,cat 4,category 21
KosSauce,55.9448519947,-4.75227899567,0.355860111182,0.93703952888,0.563979323685,cat 2,category 3
Zumix,53.3019216524,-2.37246699765,0.154846770947,0.946466868034,0.545126090733,cat 2,category 10
IbiGeo,51.6705568765,-3.22880106467,0.381583470052,0.61449607766,0.849821866567,cat 2,category 26
Filbio Designs,51.2151359099,-0.523824268719,0.00269864056048,0.79364700339,0.890231054633,cat 3,category 2
Ibidiant,54.4609044996,-0.661405685571,0.7563091146,0.829136610345,0.800371323071,cat 3,category 22
flojing,52.4633069594,-1.85645043721,0.984207709322,0.742608363385,0.87822316088,cat 3,category 8
Claxmonkey,51.2366574144,-0.341352494098,0.926819004872,0.750033955974,0.469236450666,cat 4,category 24
Scromonkey Labs,55.8622570634,-4.03052547133,0.895531230776,0.635751096662,0.947513281208,cat 3,category 15
Plurcloud Labs,55.8186133185,-3.80055221979,0.324379811855,0.665455149099,0.65985880747,cat 1,category 14
jazee,51.6111652076,-0.643955943244,0.3391543135,0.285190690652,0.24071614183,cat 2,category 0
YaTra,55.9210924762,-4.15643872359,0.967259751252,0.501871532524,0.105760130545,cat 1,category 28
Youbox,53.3495591327,-1.98869416698,0.928019150426,0.654248265709,0.13226820764,cat 4,category 28
bodiant,52.9952897483,-0.410204650648,0.00223505160737,0.746419763543,0.471597040403,cat 1,category 23
claxmee,54.6569286514,-1.67942206498,0.117868636028,0.997539855406,0.335017761753,cat 3,category 22
Vertsy,52.5799595784,-1.82906402755,0.993743942167,0.669218680232,0.529042746924,cat 2,category 7
OpenNico,54.4375782552,-0.757915712907,0.492463980752,0.884773256173,0.426996089698,cat 3,category 20
VertDoo,55.7117257102,-4.53325447649,0.71162905832,0.94648967833,0.439508128742,cat 3,category 7
QuirbZizzl,57.6892030377,-4.1791800256,0.579567503354,0.578218447759,0.996983709615,cat 2,category 8
PlurGeo,54.8081473164,-2.77414632208,0.267358844121,0.743966222668,0.0599305537164,cat 2,category 4
remsauce,53.6212841484,-1.79480666777,0.390273253662,0.142399495282,0.444700853515,cat 4,category 3
remchi,51.3616997602,0.204056894348,0.215553401903,0.855608833771,0.159454203057,cat 2,category 21
Quirbmee,,,0.914293493319,0.946578799201,0.0704848518878,cat 2,category 26
Kosbo Systems,51.3849936751,-0.592520374952,0.253693390322,0.631906999493,0.325353007343,cat 3,category 9
Mymo Systems,53.4158141938,-2.09279070766,0.203981193003,0.81854393755,0.0783446746858,cat 3,category 1
Quirbtrix Systems,51.7180259878,-0.3451522284,0.33411795285,0.923592061672,0.140316908424,cat 1,category 6
PlurGeo,51.9932220235,-1.70000999233,0.157252325905,0.422716895694,0.102267862548,cat 1,category 11
ZimTrix,,,0.147602004718,0.620814526983,0.624443737545,cat 1,category 15
IEra,51.4217296381,-0.408560352828,0.0785562135687,0.172476126931,0.0847415336849,cat 3,category 14
loogo,54.4658710198,-0.909728944291,0.6732522722,0.636734145713,0.248865742627,cat 1,category 29
pronico,53.3495515719,-2.99953842078,0.370234824997,0.658602803351,0.890660871024,cat 2,category 14
Mybio,52.6318625734,-1.12386306815,0.594938797473,0.306695888558,0.112649062371,cat 4,category 19
Dayga,51.7993807365,-0.0722014443426,0.184246228835,0.405230058087,0.670462245085,cat 1,category 22
Smugster,52.0458701603,-2.42798046502,0.493910257306,0.0899892236426,0.629969496624,cat 4,category 19
RaBa,56.6824103909,-4.57441680053,0.0413717574706,0.193503073781,0.511342242184,cat 1,category 21
jibscro,52.6936233853,-4.05137185777,0.53709427045,0.735173172247,0.646813573106,cat 1,category 25
Truyou,51.5648078853,-1.78694252806,0.738795158359,0.211988940429,0.921177071073,cat 3,category 28
domee,53.450039567,-2.1558808489,0.573831360006,0.513760142186,0.777885056521,cat 4,category 25
Dotsense,50.9322224622,0.700478498454,0.821489973853,0.593612516395,0.89584681034,cat 2,category 19
Cloudgo Media,53.5874194613,-0.184408244251,0.319955465383,0.266909327689,0.26387351688,cat 2,category 8
rascro,50.8414870034,-1.06911275677,0.145353352517,0.468548294294,0.268494015538,cat 3,category 9
youzee,52.2312427283,-0.246840903567,0.960310676079,0.926429317822,0.871739861091,cat 2,category 10
Cloudzizzl Media,53.6787522122,-1.35882736263,0.623130333362,0.408743355005,0.638329192724,cat 3,category 1
Mycloud,53.4899752316,-1.23333971786,0.98164102652,0.453100239965,0.346241076699,cat 4,category 25
Livehop Labs,51.524778974,-3.695666933,0.662159468931,0.597526214333,0.236498380112,cat 2,category 25
Jamkee,54.3757441985,-2.8205601627,0.799453151367,0.490593075006,0.629106440474,cat 4,category 23
Filspace,55.7902997832,-4.30887919659,0.485302831963,0.390790101978,0.0941540419313,cat 2,category 28
Zimbox,51.170363777,-1.61819657389,0.958395854042,0.22218355313,0.892390577899,cat 4,category 25
Adgo,50.7801805327,-2.57021183095,0.919353530536,0.15957027919,0.319219780965,cat 3,category 28
skoscro,53.7529173773,-2.37189798595,0.165530573844,0.726600461383,0.656707871119,cat 1,category 2
PlurDoodle,50.6861317749,-3.46457577057,0.822731906088,0.0280612424667,0.822933365948,cat 1,category 23
Yeddchi,51.2496155425,-2.20755994264,0.270943483894,0.651212500684,0.852015170246,cat 3,category 20
Zimjing Collective,55.8106223731,-4.27457135132,0.381399017917,0.431681852574,0.410447459958,cat 2,category 9
tubzee,51.5140902405,0.42486625375,0.893474609185,0.556997052997,0.165034288642,cat 3,category 22
Jamzizzl Systems,51.252918087,-0.327583758482,0.939020660032,0.553549762902,0.530879037007,cat 2,category 6
JamSter,55.994557865,-4.71178837695,0.451705132429,0.337641781569,0.997127402366,cat 3,category 18
Youfish,51.8000116547,-0.202849823146,0.0293017338242,0.87387775819,0.898491188933,cat 1,category 26
skospace,52.5515824864,-1.97628595893,0.436144306431,0.796813678717,0.613482713966,cat 4,category 5
JibGa,56.4125079642,-5.47214952678,0.109438114545,0.88262410214,0.679777718698,cat 4,category 26
Fildiant Media,52.29611591,-1.66783689715,0.564661419697,0.160196710563,0.759245890914,cat 2,category 4
Clouddoo,53.2968194783,-3.72453482919,0.955015934318,0.562344939128,0.652498788437,cat 4,category 28
skoster,56.319947861,-3.00357959071,0.98462227783,0.650642893271,0.0206832490047,cat 3,category 4
Xoscro,55.7722068279,-3.9273098489,0.320654681167,0.537124156019,0.413266645699,cat 2,category 0
VertMix,55.8822802517,-4.32361320122,0.0358369784602,0.639212455147,0.468790638948,cat 3,category 14
Zinspace,52.9353018793,1.24700368369,0.0336004179347,0.620090307542,0.543067686704,cat 2,category 14
zinstar,51.7122373385,-3.34731739358,0.0512339428665,0.947746347272,0.564782015104,cat 3,category 4
bobio,50.8557229256,-3.80895531813,0.627728226705,0.210845587613,0.107542152087,cat 4,category 13
xomo,51.4700814275,-0.558775976648,0.0460084086937,0.670192978273,0.833890253303,cat 2,category 8
Zimgo Systems,51.8707394247,0.567885532332,0.981105425167,0.316201227855,0.240926579035,cat 3,category 25
Dochi Labs,56.7601153725,-4.69092043672,0.417130367246,0.345471538553,0.952472466276,cat 2,category 22
Skonit,56.0037508249,-4.73304636121,0.605163070439,0.563101781145,0.951255918806,cat 4,category 7
DayMo,53.3579817205,-2.91221187096,0.86617540617,0.850602201663,0.813981758987,cat 4,category 6
Xoyou,51.5141139382,-2.54222443089,0.582997687767,0.927703533854,0.743965605186,cat 2,category 24
Myton Systems,51.1564709382,0.745879787222,0.523335080891,0.841812182855,0.610412481927,cat 2,category 7
jibnet,56.3947726635,-5.11457639655,0.985187668961,0.765145425817,0.298911892412,cat 1,category 9
Yabo,53.2789036772,-3.82588318923,0.365151428222,0.544505020588,0.0953596346107,cat 1,category 17
Blaockr,51.2979653198,-0.333477946095,0.431559630201,0.788496626587,0.608224967471,cat 1,category 2
BoMix,53.7894395383,-1.32556911376,0.454967785979,0.544268500433,0.965367125884,cat 3,category 20
DayQa,53.7268033595,-2.65562081348,0.81622421548,0.790628745228,0.846387052135,cat 3,category 4
XoFish,53.35746938,-2.00754821391,0.992032360792,0.149672047203,0.232696545361,cat 4,category 7
Jamnit,51.3094330472,-0.0810410772582,0.971589163941,0.418404690126,0.123161033335,cat 2,category 29
Iga,,,0.534991172268,0.1065655533,0.576167807917,cat 1,category 8
Floza,55.8354080586,-4.26835303443,0.205936038543,0.647949710508,0.365616196005,cat 2,category 4
Initrix Labs,51.0337852951,-1.54601656073,0.469483835395,0.238180483452,0.174388371022,cat 3,category 8
myqa,56.0559639969,-3.29811719843,0.873350187202,0.60057946243,0.854554848214,cat 3,category 7
Jibla Media,53.6887773476,-0.961702509969,0.757491981076,0.684157027316,0.254911873788,cat 4,category 14
RaQa,52.0255877649,-0.266847080857,0.806167586285,0.180698103127,0.621826855783,cat 4,category 6
Claxbo Media,51.9158368393,-0.678634995916,0.61477313701,0.31517449136,0.873299593211,cat 3,category 6
Yeddspace,53.5436531523,-1.53275448786,0.179885751201,0.134394292851,0.727641061112,cat 4,category 12
GlifOn,51.2067737954,-2.17744975966,0.477531463947,0.690506176128,0.796252572869,cat 2,category 4
vertzee,54.0609957152,-2.30055022001,0.809659977435,0.745252611678,0.707830801723,cat 1,category 0
Blingyou Designs,57.8810288188,-4.36256746326,0.184807664717,0.436696756084,0.889873989731,cat 3,category 10
Kabdoodle Collective,53.3947236365,-2.3446299645,0.316608220528,0.658813223608,0.46772249734,cat 1,category 26
Flohop,55.8886562537,-4.24891090006,0.602008743452,0.248138985492,0.696356176287,cat 3,category 23
SkoZee,57.0612826517,-2.12858956445,0.653096941691,0.92272390228,0.726105766366,cat 3,category 15
Scrostar Labs,53.623603295,-1.88150372793,0.845740173246,0.19809294688,0.666028197565,cat 2,category 0
Tubnit,51.3649131711,1.11746035205,0.0125114724017,0.0286884049999,0.169379613283,cat 2,category 8
ScroCloud,56.1622009813,-3.14708453778,0.146663328234,0.166641387884,0.130678988056,cat 2,category 21
Zuton Systems,51.3919369763,-0.632120886098,0.662332108935,0.410559841695,0.144664301339,cat 2,category 1
tubsy,54.0837858804,-0.197970867083,0.186506238837,0.741646347586,0.904280944608,cat 4,category 4
kosify,55.8633049152,-4.24928307538,0.609514326643,0.646304500328,0.22301167751,cat 4,category 6
Jibstar,51.4978103196,-0.876885374497,0.889742328191,0.531912543693,0.568924958874,cat 4,category 3
Itra,56.9668219828,-2.22529705252,0.249346049122,0.100732770421,0.0454573446273,cat 3,category 4
Blingdoodle Systems,55.8373041538,-4.28970502938,0.859359324179,0.817677238746,0.206374743255,cat 1,category 22
Yoyou Labs,52.9191608754,-4.23338543554,0.609692620288,0.382304195594,0.0730935363071,cat 4,category 3
youcloud,53.5741516136,-0.0607474828539,0.675875685717,0.575938249205,0.603547341377,cat 1,category 21
doon,53.4096610877,-3.07503854001,0.855397905506,0.70520896746,0.632626035748,cat 1,category 16
Claxmonkey,50.4056481268,-4.46623454844,0.169287146332,0.45096354902,0.907976307581,cat 2,category 21
Blingsauce Collective,51.44591338,0.325401954636,0.169421686672,0.663736277841,0.829208019384,cat 4,category 16
LooSpace,53.3365847755,-1.24082298354,0.873341017832,0.0424167098628,0.166192959215,cat 3,category 28
Loomo Collective,56.88391466,-4.7014589842,0.961386830826,0.369020195379,0.822366934008,cat 4,category 22
QuirbTon,51.4316829465,-1.07896458858,0.601409912353,0.704084256469,0.406876938937,cat 1,category 24
Plurzee,51.0904258633,1.06696062932,0.589732266544,0.779053606037,0.69723448382,cat 3,category 19
Ibidoo Collective,51.6172048595,-3.43737677565,0.260074922923,0.0570026886296,0.74516775043,cat 2,category 24
botrix,55.953460805,-2.97421644064,0.208589454411,0.0946328269195,0.956283198659,cat 3,category 4
DayTon,51.6431043589,-3.46623374714,0.0966273424187,0.469725217108,0.428989849212,cat 3,category 22
Jibnico Collective,51.8810106085,-1.29739377954,0.441295331317,0.259567156989,0.938437132375,cat 2,category 8
YoLa,54.9658451156,-1.61917839661,0.729127861115,0.278939552099,0.274349390483,cat 2,category 6
Yobox,52.1937365838,0.138245429392,0.673947672701,0.673937904679,0.370177398162,cat 3,category 12
Looba Designs,54.9590176528,-1.66577983049,0.847392705792,0.562630241425,0.493593920376,cat 4,category 21
TubZizzl,53.3844312723,-1.41286987167,0.238638989455,0.916690947145,0.149424141237,cat 1,category 24
Smugzee Labs,51.0432851018,-0.894186263562,0.28435300919,0.188271475942,0.153948299055,cat 4,category 5
inicloud,53.4516844305,-2.05367309921,0.313606681343,0.0138135922682,0.076857844423,cat 4,category 12
JamGeo,53.3867403429,-3.08483556679,0.424378542819,0.643708899512,0.052747906035,cat 1,category 1
YouJing,50.8664036207,-2.57346606933,0.55279963908,0.644340408129,0.733728274399,cat 2,category 2
boly,51.4370928419,-3.20626701296,0.737010446071,0.20925549745,0.826057558345,cat 3,category 28
TubIfy,55.4698084027,-4.29848659528,0.621485146485,0.942258417774,0.542860657613,cat 2,category 3
YaQa,50.9177276253,-3.3585931454,0.299695557666,0.343735014001,0.603883812022,cat 1,category 6
BlaoGeo,51.2959438538,0.171212652775,0.669147967852,0.181335234696,0.10775603181,cat 2,category 28
loocloud,55.9044004284,-4.36317378244,0.420831990346,0.0189092525592,0.544901912101,cat 3,category 24
